_id,DESC_CLASIFICACION,COD_BARRIO,BARRIO,COD_DISTRITO,DISTRITO,ESTADO,COORD_GIS_X,COORD_GIS_Y,SISTEMA_COORD,LATITUD,LONGITUD,TIPO_VIA,NOM_VIA,NUM_VIA,COD_POSTAL,DIRECCION_AUX,NDP,FECHA_INSTALACION,CODIGO_INTERNO,CONTRATO_COD,TOTAL_ELEM,TIPO,CAPACIDAD_MAX,CANTIDAD_POR_TIPO_JUEGO
16657,AREA INFANTIL,15,UNIVERSIDAD,1.0,CENTRO,OPERATIVO,439600.898,4475235.511,ETRS89,40.42556179,-3.71202019,PLAZA,CRISTINO MARTOS,2,28015.0,"PLAZA CRISTINO MARTOS , ASCENDIENTE 1: 015",11006548.0,2004-01-01T00:00:00Z,I1004,AE21,4,INFANTIL,16,"[('INFANTIL', '16')]"
16658,AREA INFANTIL,15,UNIVERSIDAD,1.0,CENTRO,OPERATIVO,439856.44,4475417.186,ETRS89,40.42721691,-3.70902511,PLAZA,COMENDADORAS,9,28015.0,"PLAZA COMENDADORAS , ASCENDIENTE 1: 015 · U",11006381.0,2004-01-01T00:00:00Z,I1005,AE21,10,INFANTIL,20,[]
16659,AREA INFANTIL,15,UNIVERSIDAD,1.0,CENTRO,OPERATIVO,440259.0,4475407.99,ETRS89,40.42716308,-3.70427886,PLAZA,DOS DE MAYO,3,28004.0,"PLAZA DEL DOS DE MAYO 3 , ASCENDIENTE 1: 01",11006142.0,2006-11-21T00:00:00Z,I1006,AE21,8,INFANTIL,3,"[('INFANTIL', '3')]"
16660,AREA INFANTIL,15,UNIVERSIDAD,1.0,CENTRO,OPERATIVO,440254.716,4475367.323,ETRS89,40.42679642,-3.70432554,PLAZA,DOS DE MAYO,2,28004.0,"PLAZA DEL DOS DE MAYO 2 , ASCENDIENTE 1: 01",11006158.0,2006-11-20T00:00:00Z,I1007,AE21,18,INFANTIL,8,"[('INFANTIL', '8')]"
16661,AREA INFANTIL,14,JUSTICIA,1.0,CENTRO,OPERATIVO,441256.019,4475200.267,ETRS89,40.42536281,-3.69250676,PLAZA,VILLA DE PARIS,1,28004.0,"PLAZA DE LA VILLA DE PARIS , ZONA 1",11005131.0,2007-06-20T00:00:00Z,I1009,AE21,16,INFANTIL,14,"[('INFANTIL', '14')]"
16662,AREA DE MAYORES,15,UNIVERSIDAD,1.0,CENTRO,OPERATIVO,439837.18,4475417.53,ETRS89,40.42721862,-3.70925218,PLAZA,COMENDADORAS,9,28015.0,"PLAZA COMENDADORAS , ASCENDIENTE 1: 015 · U",11006381.0,2004-01-01T00:00:00Z,M0101,AE21,9,MAYORES,20,"[('MAYORES', '15'), ('INFANTIL', '5')]"
16663,AREA INFANTIL,11,PALACIO,1.0,CENTRO,OPERATIVO,438915.13,4474119.77,ETRS89,40.41546065,-3.71999665,PASEO,VIRGEN DEL PUERTO,3 B,28005.0,"PARQUE DE ATENAS , ASCENDIENTE 1: 011 · PALA",31044315.0,2004-01-01T00:00:00Z,I1010,AE21,17,INFANTIL,24,[]
16664,AREA INFANTIL,11,PALACIO,1.0,CENTRO,OPERATIVO,438975.594,4474091.596,ETRS89,40.41521128,-3.71928133,PASEO,CIUDAD DE PLASENCIA,1,28005.0,"PARQUE DE ATENAS , ASCENDIENTE 1: 011 · PALA",31044315.0,2004-01-01T00:00:00Z,I1011,AE21,17,INFANTIL,24,"[('INFANTIL', '24')]"
16665,AREA INFANTIL,11,PALACIO,1.0,CENTRO,OPERATIVO,439005.2,4474092.66,ETRS89,40.41522303,-3.71893249,PARQUE,PARQUE DE ATENAS  ASCENDIENTE 1,011,28005.0,"PARQUE DE ATENAS , ASCENDIENTE 1: 011 · PALA",31047537.0,2004-01-01T00:00:00Z,I1012,AE21,4,INFANTIL,0,[]
16666,AREA INFANTIL,14,JUSTICIA,1.0,CENTRO,OPERATIVO,440657.77,4474736.53,ETRS89,40.42114279,-3.69951548,PLAZA,PLAZA VAZQUEZ DE MELLA,6,28004.0,"PLAZA VAZQUEZ DE MELLA 6 , ASCENDIENTE 1: 0",11004540.0,2004-09-30T00:00:00Z,I1013,AE21,5,INFANTIL,0,[]
16667,AREA INFANTIL,11,PALACIO,1.0,CENTRO,OPERATIVO,439138.411,4473621.593,ETRS89,40.4109892,-3.71731742,CALLE,ALGECIRAS,4,28005.0,"CALLE DE ALGECIRAS , ASCENDIENTE 1: 011 · PAL",11001113.0,2004-01-01T00:00:00Z,I1014,AE21,8,INFANTIL,3,"[('INFANTIL', '3')]"
16668,AREA INFANTIL,11,PALACIO,1.0,CENTRO,OPERATIVO,439372.072,4473911.935,ETRS89,40.41362179,-3.71459135,CUESTA,CIEGOS,2,28005.0,"CALLE CUESTA DE LOS CIEGOS 2 , ASCENDIENTE 1:",20105119.0,2004-01-01T00:00:00Z,I1015,AE21,24,INFANTIL,5,"[('INFANTIL', '5')]"
16669,AREA INFANTIL,12,EMBAJADORES,1.0,CENTRO,OPERATIVO,439733.864,4473204.282,ETRS89,40.40727319,-3.71026037,GLORIETA,PUERTA DE TOLEDO,1,28005.0,"PLAZA PUERTA DE TOLEDO , ASCENDIENTE 1: 012",20105763.0,2004-01-01T00:00:00Z,I1016,AE21,14,INFANTIL,35,[]
16670,AREA INFANTIL,11,PALACIO,1.0,CENTRO,OPERATIVO,439485.273,4473285.451,ETRS89,40.40798637,-3.71319762,AVENIDA,GRAN VIA DE SAN FRANCISCO,9,28005.0,"CALLE GRAN VIA DE SAN FRANCISCO 9 , ASCENDIEN",20142017.0,2004-01-01T00:00:00Z,I1017,AE21,15,INFANTIL,6,"[('INFANTIL', '6')]"
16671,AREA INFANTIL,11,PALACIO,1.0,CENTRO,OPERATIVO,439371.715,4473323.183,ETRS89,40.40831801,-3.71453946,CALLE,VENTOSA,23,28005.0,"CALLE VENTOSA , ASCENDIENTE 1: 011 · PALACIO",11001131.0,2004-01-01T00:00:00Z,I1018,AE21,10,INFANTIL,5,"[('INFANTIL', '5')]"
16672,AREA INFANTIL,11,PALACIO,1.0,CENTRO,OPERATIVO,439284.769,4473474.046,ETRS89,40.40967072,-3.71557848,CALLE,ROSARIO,27,28005.0,"CALLE ROSARIO , ASCENDIENTE 1: 011 · PALACIO",11001199.0,2004-01-01T00:00:00Z,I1019,AE21,16,INFANTIL,8,"[('INFANTIL', '8')]"
16674,AREA INFANTIL,12,EMBAJADORES,1.0,CENTRO,OPERATIVO,440322.89,4473469.62,ETRS89,40.40970592,-3.70334385,CALLE,AMPARO,28,28012.0,"CALLE MESON DE PAREDES 46 , ASCENDIENTE 1: 01",11002104.0,2007-05-17T00:00:00Z,I1020,AE21,6,INFANTIL,0,[]
16675,AREA INFANTIL,15,UNIVERSIDAD,1.0,CENTRO,OPERATIVO,440291.785,4475203.161,ETRS89,40.42532024,-3.70387315,CALLE,ESPIRITU SANTO,26,28004.0,"PLAZA JUAN PUJOL , ASCENDIENTE 1: 015 · UNI",11006128.0,2011-01-22T00:00:00Z,I1021,AE21,6,INFANTIL,2,"[('INFANTIL', '2')]"
16676,AREA INFANTIL,12,EMBAJADORES,1.0,CENTRO,OPERATIVO,440288.04,4473330.87,ETRS89,40.40845349,-3.70374154,CALLE,SOMBRERETE,26,28012.0,"PLAZA AGUSTÍN LARA , ASCENDIENTE 1: 012 · E",11002132.0,2004-01-01T00:00:00Z,I1022,AE21,11,INFANTIL,9,[]
16677,AREA INFANTIL,13,CORTES,1.0,CENTRO,OPERATIVO,440552.131,4474009.92,ETRS89,40.4145896,-3.70069273,PLAZA,SANTA ANA,8,28012.0,"PLAZA SANTA ANA 8 , ASCENDIENTE 1: 013 ·",11003720.0,2007-06-28T00:00:00Z,I1023,AE21,6,INFANTIL,11,"[('INFANTIL', '11')]"
16678,AREA INFANTIL,13,CORTES,1.0,CENTRO,OPERATIVO,440562.68,4474038.459,ETRS89,40.41484745,-3.70057107,CALLE,PRINCIPE,5,28012.0,"PLAZA SANTA ANA , ASCENDIENTE 1: 013 · CORT",11003843.0,2007-06-28T00:00:00Z,I1024,AE21,6,INFANTIL,3,"[('INFANTIL', '3')]"
16679,AREA INFANTIL,12,EMBAJADORES,1.0,CENTRO,OPERATIVO,439895.828,4473094.345,ETRS89,40.40629454,-3.70834132,PLAZA,CAMPILLO DEL MUNDO NUEVO,3 B,28005.0,"CALLE RONDA DE TOLEDO , ASCENDIENTE 1: 012 ·",31035660.0,2004-01-01T00:00:00Z,I1025,AE21,9,INFANTIL,5,"[('INFANTIL', '5')]"
16680,AREA INFANTIL,13,CORTES,1.0,CENTRO,OPERATIVO,441128.91,4474218.23,ETRS89,40.41650716,-3.69391418,PASEO,PASEO PRADO,6,28012.0,"PASEO PRADO 6 , ASCENDIENTE 1: 013 · CORTES",31047833.0,2004-01-01T00:00:00Z,I1027,AE21,14,INFANTIL,0,[]
16682,AREA INFANTIL,13,CORTES,1.0,CENTRO,OPERATIVO,440997.38,4473845.72,ETRS89,40.41314209,-3.69542987,CALLE,CALLE HUERTAS,70,28012.0,"CALLE HUERTAS 70 , ASCENDIENTE 1: 013 · CORTE",11003476.0,2019-06-12T00:00:00Z,I1029,AE21,7,INFANTIL,0,[]
16683,AREA DE MAYORES,15,UNIVERSIDAD,1.0,CENTRO,OPERATIVO,440301.76,4475401.59,ETRS89,40.42710849,-3.7037742,PLAZA,DOS DE MAYO,8,28004.0,"PLAZA PLAZA DOS DE MAYO , ASCENDIENTE 1: 01",11005467.0,2004-01-01T00:00:00Z,M0103,AE21,16,MAYORES,7,"[('MAYORES', '7')]"
16684,AREA INFANTIL,12,EMBAJADORES,1.0,CENTRO,OPERATIVO,440139.376,4473092.893,ETRS89,40.406299,-3.70547112,CALLE,CASINO,5,28012.0,"CALLE EMBAJADORES 47 , ASCENDIENTE 1: 012 · E",11002228.0,2010-11-16T00:00:00Z,I1030,AE21,24,INFANTIL,0,[]
16685,AREA INFANTIL,12,EMBAJADORES,1.0,CENTRO,OPERATIVO,440275.94,4473762.81,ETRS89,40.41234375,-3.70392467,PLAZA,PLAZA TIRSO DE MOLINA  ASCENDIENTE 1,012,28005.0,"PLAZA TIRSO DE MOLINA , ASCENDIENTE 1: 012",11001682.0,2004-01-01T00:00:00Z,I1031,AE21,11,INFANTIL,0,[]
16686,AREA INFANTIL,11,PALACIO,1.0,CENTRO,OPERATIVO,439854.28,4474604.45,ETRS89,40.41989527,-3.7089737,CALLE,CALLE CUESTA DE SANTO DOMINGO,16,28005.0,"CALLE CUESTA DE SANTO DOMINGO 16 , ASCENDIENT",11000193.0,2007-07-16T00:00:00Z,I1032,AE21,5,INFANTIL,0,[]
16687,AREA INFANTIL,11,PALACIO,1.0,CENTRO,OPERATIVO,439898.4,4474604.56,ETRS89,40.41989944,-3.70845368,CALLE,CALLE CUESTA DE SANTO DOMINGO,22,28005.0,"CALLE CUESTA DE SANTO DOMINGO 22 , ASCENDIENT",20003768.0,2007-07-16T00:00:00Z,I1033,AE21,5,INFANTIL,0,[]
16690,AREA INFANTIL,15,UNIVERSIDAD,1.0,CENTRO,OPERATIVO,440296.31,4475362.82,ETRS89,40.42675884,-3.7038348,PLAZA,DOS DE MAYO,9,28004.0,"PLAZA DEL DOS DE MAYO , ASCENDIENTE 1: 015",11006172.0,2006-11-20T00:00:00Z,I1036,AE21,8,INFANTIL,1,"[('INFANTIL', '1')]"
16692,AREA INFANTIL,14,JUSTICIA,1.0,CENTRO,OPERATIVO,440935.955,4475382.786,ETRS89,40.42698437,-3.69629654,PLAZA,SANTA BARBARA,8,28004.0,"PLAZA SANTA BARBARA , ASCENDIENTE 1: 014 ·",11005154.0,2011-04-15T00:00:00Z,I1038,AE21,5,INFANTIL,7,[]
16693,AREA INFANTIL,12,EMBAJADORES,1.0,CENTRO,OPERATIVO,440401.999,4473580.184,ETRS89,40.4107076,-3.70242191,CALLE,MINISTRILES CHICA,1,28012.0,"CALLE MINISTRILES 19 , ASCENDIENTE 1: 012 · E",20004678.0,2011-01-12T00:00:00Z,I1039,AE21,10,INFANTIL,2,"[('INFANTIL', '2')]"
16695,AREA DE MAYORES,12,EMBAJADORES,1.0,CENTRO,OPERATIVO,439696.57,4473203.136,ETRS89,40.40726017,-3.71069976,GLORIETA,PUERTA DE TOLEDO,1,28005.0,"PLAZA PLAZA PUERTA DE TOLEDO , ASCENDIENTE",20105763.0,2004-01-01T00:00:00Z,M0105,AE21,2,MAYORES,35,"[('INFANTIL', '25'), ('MAYORES', '10')]"
16696,AREA DE MAYORES,12,EMBAJADORES,1.0,CENTRO,OPERATIVO,440249.13,4473137.65,ETRS89,40.40671008,-3.70418194,CALLE,EMBAJADORES,66 B,28005.0,PARQUE PARQUE /CASINO DE LA REINA/(EMB,31047998.0,2005-08-09T00:00:00Z,M0106,AE21,10,MAYORES,3,"[('MAYORES', '3')]"
16697,AREA DE MAYORES,14,JUSTICIA,1.0,CENTRO,OPERATIVO,440953.79,4475414.47,ETRS89,40.42727106,-3.69608925,PLAZA,PLAZA PLAZA SANTA BARBARA  ASCENDIENTE 1,14,28004.0,"PLAZA PLAZA SANTA BARBARA , ASCENDIENTE 1:",11005153.0,2011-04-15T00:00:00Z,M0107,AE21,2,MAYORES,1,"[('MAYORES', '1')]"
16698,AREA INFANTIL,21,IMPERIAL,2.0,ARGANZUELA,OPERATIVO,438996.4,4473688.69,ETRS89,40.41158325,-3.71899747,CALLE,JUAN DUQUE,25,28005.0,"CALLE JUAN DUQUE 25 POSTERIOR (ZONA I), ASCENDIENTE 1: 021 · IM",11008100.0,2007-03-12T00:00:00Z,I2001,AE21,9,INFANTIL,9,[]
16699,AREA INFANTIL,21,IMPERIAL,2.0,ARGANZUELA,OPERATIVO,439096.42,4472942.9,ETRS89,40.40487215,-3.71774733,CALLE,COBOS DE SEGOVIA,17,28005.0,"CALLE COBOS DE SEGOVIA 15-17 POST CON CALLE/ SAN GARCÍA, ASCENDIENTE 1: 021 ·",20108116.0,2005-11-05T00:00:00Z,I2002,AE21,12,INFANTIL,6,"[('INFANTIL', '6')]"
16700,AREA INFANTIL,21,IMPERIAL,2.0,ARGANZUELA,OPERATIVO,439293.934,4473095.922,ETRS89,40.40626507,-3.7154344,CALLE,MUNOPEDRO,12,28005.0,"CALLE MUÑOPEDRO 21 ZONA 1, ASCENDIENTE 1: 021 ·",20147651.0,2006-02-01T00:00:00Z,I2003,AE21,14,INFANTIL,5,"[('INFANTIL', '5')]"
16701,AREA INFANTIL,21,IMPERIAL,2.0,ARGANZUELA,OPERATIVO,439274.723,4473085.281,ETRS89,40.40616781,-3.71565978,CALLE,MUNOPEDRO,6,28005.0,"CALLE MUÑOPEDRO 22 ZONA 1 , ASCENDIENTE 1: 021 ·",31001522.0,2004-09-13T00:00:00Z,I2004,AE21,11,INFANTIL,2,"[('INFANTIL', '2')]"
16702,AREA INFANTIL,22,ACACIAS,2.0,ARGANZUELA,OPERATIVO,439878.051,4472973.159,ETRS89,40.40520155,-3.70853936,CALLE,CONCEJAL BENITO MARTIN LOZANO,14,28005.0,"CALLE CONCEJAL BENITO MARTIN LOZANO 14 , ASCE",11008324.0,2003-07-16T00:00:00Z,I2005,AE21,9,INFANTIL,29,"[('INFANTIL', '29')]"
16703,AREA INFANTIL,21,IMPERIAL,2.0,ARGANZUELA,OPERATIVO,438765.91,4472859.92,ETRS89,40.40410039,-3.72163411,CALLE,SAN ALEJANDRO,10,28005.0,"PARQUE SAN ALEJANDRO PADILLA JARDIN DEL MAESTRO PADILLA FRENTE 8-10, ASCENDIENTE 1: 021 ·",11008204.0,2004-09-13T00:00:00Z,I2006,AE21,10,INFANTIL,7,"[('INFANTIL', '7')]"
16707,AREA DE MAYORES,26,PALOS DE LA FRONTERA,2.0,ARGANZUELA,OPERATIVO,440968.37,4472624.27,ETRS89,40.4021366,-3.69565846,CALLE,CANARIAS,24,28045.0,"CALLE CANARIAS 24 , ASCENDIENTE 1: 026 · PALO",11010068.0,2004-01-01T00:00:00Z,M0201,AE21,9,MAYORES,9,"[('MAYORES', '9')]"
16708,AREA INFANTIL,22,ACACIAS,2.0,ARGANZUELA,OPERATIVO,440021.63,4472134.99,ETRS89,40.39766127,-3.70676843,PASEO,YESERIAS,43,28005.0,"PASEO YESERIAS 43 , ASCENDIENTE 1: 022 · ACA",11008377.0,2006-06-16T00:00:00Z,I2014,AE21,11,INFANTIL,4,"[('INFANTIL', '4')]"
16709,AREA INFANTIL,22,ACACIAS,2.0,ARGANZUELA,OPERATIVO,439935.24,4472267.19,ETRS89,40.39884597,-3.70779882,CALLE,NAVES,9,28005.0,"CALLE NAVES 9 POSTERIOR, ASCENDIENTE 1: 022 · ACACIAS",20007452.0,2004-12-02T00:00:00Z,I2015,AE21,6,INFANTIL,3,"[('INFANTIL', '3')]"
16710,AREA INFANTIL,22,ACACIAS,2.0,ARGANZUELA,OPERATIVO,439974.89,4472319.41,ETRS89,40.39931925,-3.70733655,CALLE,NAVES,15,28005.0,"CALLE NAVES 15 POSTERIOR, ASCENDIENTE 1: 022 · ACACIAS",11008372.0,2004-02-12T00:00:00Z,I2016,AE21,6,INFANTIL,3,"[('INFANTIL', '3')]"
16711,AREA INFANTIL,22,ACACIAS,2.0,ARGANZUELA,OPERATIVO,439981.56,4472362.09,ETRS89,40.39970421,-3.70726198,CALLE,ARGANDA,32,28005.0,"CALLE ARGANDA 39 POSTERIOR , ASCENDIENTE 1: 022 · ACACI",11010584.0,2004-02-12T00:00:00Z,I2017,AE21,6,INFANTIL,2,"[('INFANTIL', '2')]"
16712,AREA INFANTIL,22,ACACIAS,2.0,ARGANZUELA,OPERATIVO,439593.08,4472749.48,ETRS89,40.40316592,-3.71187628,PASEO,JUAN ANTONIO VALLEJO-NAJERA BOTAS,41,28005.0,"PASEO DEL DOCTOR VALLEJO NAJERA  Nº 41, ASCENDIEN",20002182.0,2004-09-13T00:00:00Z,I2018,AE21,7,INFANTIL,4,"[('INFANTIL', '4')]"
16713,AREA INFANTIL,26,PALOS DE LA FRONTERA,2.0,ARGANZUELA,OPERATIVO,441397.64,4472484.2,ETRS89,40.4009051,-3.69058718,CALLE,GENERAL LACY,50,28045.0,"CALLE GENERAL LACY FRENTE AL Nº 50 , ASCENDIENTE 1: 026 · PAL",11009960.0,2006-03-21T00:00:00Z,I2019,AE21,5,INFANTIL,2,"[('INFANTIL', '2')]"
16714,AREA DE MAYORES,21,IMPERIAL,2.0,ARGANZUELA,OPERATIVO,439420.73,4473179.92,ETRS89,40.407031,-3.71394819,TRAVESIA,GIL IMON,11,28005.0,"PLAZA PZA MERCADO CON TSIA GIL IMON Nº44 ,",31041969.0,2004-01-01T00:00:00Z,M0202,AE21,4,MAYORES,4,"[('MAYORES', '4')]"
16715,AREA INFANTIL,22,ACACIAS,2.0,ARGANZUELA,OPERATIVO,439936.24,4472639.29,ETRS89,40.4021981,-3.70782215,CALLE,GASOMETRO,32,28005.0,"CALLE VALLEJO NAJERA CALLE/ GASÓMETRO, ASCENDIENTE 1: 022 · A",31044316.0,2006-11-01T00:00:00Z,I2020,AE21,10,INFANTIL,7,"[('INFANTIL', '7')]"
16716,AREA INFANTIL,22,ACACIAS,2.0,ARGANZUELA,OPERATIVO,440164.42,4472479.63,ETRS89,40.40077623,-3.70511834,PASEO,ESPERANZA,21,28005.0,"PARQUE PEÑUELAS (FRENTE PASEO ESPERANZA 21) ZONA I, ASCENDIENTE 1: 022 · ACACI",11008625.0,2006-12-26T00:00:00Z,I2021,AE21,4,INFANTIL,4,[]
16717,AREA INFANTIL,22,ACACIAS,2.0,ARGANZUELA,OPERATIVO,440229.186,4472582.032,ETRS89,40.40170337,-3.70436479,PASEO,JUAN ANTONIO VALLEJO-NAJERA BOTAS,20,28005.0,"PARQUE PARROCO SANCHEZ CAMARA CALLE/ DOCTOR VALLEJO NÁJERA, ASCENDIENTE",20118591.0,2005-12-22T00:00:00Z,I2022,AE21,14,INFANTIL,11,"[('INFANTIL', '11')]"
16718,AREA INFANTIL,22,ACACIAS,2.0,ARGANZUELA,OPERATIVO,440373.14,4472485.29,ETRS89,40.40084219,-3.70265944,PLAZA,PENUELAS,7,28005.0,"PLAZA PEÑUELAS , ASCENDIENTE 1: 022 · ACACI",11008631.0,2005-01-04T00:00:00Z,I2023,AE21,7,INFANTIL,4,"[('INFANTIL', '4')]"
16719,AREA INFANTIL,22,ACACIAS,2.0,ARGANZUELA,OPERATIVO,440605.066,4472474.526,ETRS89,40.4007618,-3.69992555,GLORIETA,SANTA MARIA DE LA CABEZA,12,28045.0,"GLORIETA SANTA MARIA DE LA CABEZA , ASCENDI",31033184.0,2005-10-06T00:00:00Z,I2024,AE21,7,INFANTIL,4,"[('INFANTIL', '4')]"
16720,AREA INFANTIL,26,PALOS DE LA FRONTERA,2.0,ARGANZUELA,OPERATIVO,441089.29,4472562.48,ETRS89,40.40158853,-3.69422786,PLAZA,LUCA DE TENA,11,28045.0,"PLAZA LUCA DE TENA 11 , ASCENDIENTE 1: 026",11010082.0,2005-05-11T00:00:00Z,I2025,AE21,8,INFANTIL,5,"[('INFANTIL', '5')]"
16721,AREA INFANTIL,26,PALOS DE LA FRONTERA,2.0,ARGANZUELA,OPERATIVO,441158.86,4472556.97,ETRS89,40.40154381,-3.69340757,PLAZA,LUCA DE TENA,6,28045.0,"PLAZA LUCA DE TENA Nº 6-7, ASCENDIENTE 1: 026 · P",11009927.0,2006-02-28T00:00:00Z,I2026,AE21,4,INFANTIL,1,"[('INFANTIL', '1')]"
16722,AREA INFANTIL,26,PALOS DE LA FRONTERA,2.0,ARGANZUELA,OPERATIVO,441167.1,4472635.03,ETRS89,40.4022476,-3.69331768,PLAZA,LUCA DE TENA,3,28045.0,"PLAZA LUCA DE TENA Nº 3-4 , ASCENDIENTE 1: 026 · P",31042873.0,2005-01-26T00:00:00Z,I2027,AE21,7,INFANTIL,4,"[('INFANTIL', '4')]"
16723,AREA INFANTIL,26,PALOS DE LA FRONTERA,2.0,ARGANZUELA,OPERATIVO,441088.851,4472642.925,ETRS89,40.40231319,-3.69424048,PLAZA,LUCA DE TENA,13,28045.0,"PLAZA LUCA DE TENA 13 , ASCENDIENTE 1: 026",20149805.0,2006-12-26T00:00:00Z,I2028,AE21,6,INFANTIL,3,"[('INFANTIL', '3')]"
16724,AREA INFANTIL,23,CHOPERA,2.0,ARGANZUELA,OPERATIVO,440730.158,4472156.391,ETRS89,40.39790479,-3.69842191,CALLE,TORRES MIRANDA,2,28045.0,"CALLE TORRES MIRANDA 2 JAIME EL CONQUISTADOR AREA 1 , ASCENDIENTE 1: 023 ·",11008769.0,2005-05-10T00:00:00Z,I2029,AE21,14,INFANTIL,9,"[('INFANTIL', '9')]"
16725,AREA DE MAYORES,22,ACACIAS,2.0,ARGANZUELA,OPERATIVO,439921.58,4472667.28,ETRS89,40.40244919,-3.70799754,PASEO,JUAN ANTONIO VALLEJO-NAJERA BOTAS,25,28005.0,"PASEO DOCTOR VALLEJO NAJERA Nº25 , ASCENDIEN",20178816.0,2015-01-04T00:00:00Z,M0203,AE21,2,MAYORES,11,"[('MAYORES', '11')]"
16726,AREA INFANTIL,25,DELICIAS,2.0,ARGANZUELA,OPERATIVO,441673.03,4472198.99,ETRS89,40.39835512,-3.687316,CALLE,JUAN DE MARIANA,8,28045.0,"CALLE JUAN DE MARIANA 4-6 POSTERIOR, ASCENDIENTE 1: 025 ·",20134606.0,2004-09-13T00:00:00Z,I2030,AE21,7,INFANTIL,17,"[('INFANTIL', '17')]"
16727,AREA INFANTIL,25,DELICIAS,2.0,ARGANZUELA,OPERATIVO,441743.07,4472141.06,ETRS89,40.39783815,-3.68648541,CALLE,JUAN DE MARIANA,14,28045.0,"CALLE JUAN DE MARIANA 14 , ASCENDIENTE 1: 025",20064306.0,2004-09-13T00:00:00Z,I2031,AE21,9,INFANTIL,2,"[('INFANTIL', '2')]"
16728,AREA INFANTIL,25,DELICIAS,2.0,ARGANZUELA,OPERATIVO,441885.57,4472300.57,ETRS89,40.39928506,-3.6848209,CALLE,MENDEZ ALVARO,38,28045.0,"CALLE MENDEZ ALVARO 38 (PLAZA AMANECER EN MÉNDEZ ÁLVARO), ASCENDIENTE 1: 025 · DE",11009554.0,2017-03-17T00:00:00Z,I2032,AE21,10,INFANTIL,4,"[('INFANTIL', '4')]"
16729,AREA INFANTIL,22,ACACIAS,2.0,ARGANZUELA,OPERATIVO,439777.819,4472567.124,ETRS89,40.40153655,-3.7096821,CALLE,MELILLA,7,28005.0,"CALLE MELILLA 7, ASCENDIENTE 1: 022 · ACACIA",11008396.0,2005-05-11T00:00:00Z,I2034,AE21,10,INFANTIL,6,"[('INFANTIL', '6')]"
16730,AREA INFANTIL,27,ATOCHA,2.0,ARGANZUELA,OPERATIVO,442379.73,4472056.25,ETRS89,40.39711843,-3.678976,CALLE,CALLE TEJO CALLE ALMEZ ZONA 2 ASCENDIENTE 1,2,28045.0,"CALLE TEJO CALLE/ ALMEZ ZONA 2, ASCENDIENTE 1: 027 · ATOCHA , AS",20139361.0,2006-01-10T00:00:00Z,I2036,AE21,14,INFANTIL,17,[]
16731,AREA INFANTIL,27,ATOCHA,2.0,ARGANZUELA,OPERATIVO,442394.32,4472078.12,ETRS89,40.39731646,-3.67880606,CALLE,ALMEZ,2,28045.0,"CALLE TEJO CALLE/ ALMEZ ZONA 1, ASCENDIENTE 1: 027 · ATOCHA , AS",20139361.0,2006-10-01T00:00:00Z,I2037,AE21,12,INFANTIL,17,[]
16732,AREA INFANTIL,23,CHOPERA,2.0,ARGANZUELA,OPERATIVO,440879.74,4471755.83,ETRS89,40.39430696,-3.69662221,PLAZA,RUTILIO GACIS,3,28045.0,"PLAZA RUTILIO GACIS 3 CALLE/ GUILLERMO DE OSMA, ASCENDIENTE 1: 023",11008990.0,2006-02-28T00:00:00Z,I2038,AE21,9,INFANTIL,14,[]
16733,AREA INFANTIL,25,DELICIAS,2.0,ARGANZUELA,OPERATIVO,441219.26,4471680.16,ETRS89,40.39364932,-3.69261489,CALLE,GRANITO,20,28045.0,"CALLE HIERRO CALLE/ GRANITO (ZONA 1) , ASCENDIENTE 1: 025 · DE",31006449.0,2005-05-25T00:00:00Z,I2039,AE21,7,INFANTIL,8,[]
16735,AREA INFANTIL,24,LEGAZPI,2.0,ARGANZUELA,OPERATIVO,441781.395,4470892.036,ETRS89,40.38658895,-3.68591965,CALLE,PUERTO DE LA CRUZ VERDE,19,28045.0,"CALLE PUERTO DE LA CRUZ VERDE CALLE/ PUERTO SERRANO, ASCENDIENTE 1",20118237.0,2005-09-20T00:00:00Z,I2040,AE21,36,INFANTIL,26,"[('INFANTIL', '21'), ('DEPORTIVAS', '3'), ('MAYORES', '2')]"
16736,AREA INFANTIL,24,LEGAZPI,2.0,ARGANZUELA,OPERATIVO,441665.85,4471297.16,ETRS89,40.39023044,-3.68731799,CALLE,BRONCE,5,28045.0,"PARQUE BRONCE 22 , ASCENDIENTE 1: 024 · LEGA",31007293.0,2007-04-25T00:00:00Z,I2042,AE21,12,INFANTIL,11,[]
16737,AREA INFANTIL,24,LEGAZPI,2.0,ARGANZUELA,OPERATIVO,441730.43,4471492.47,ETRS89,40.39199442,-3.686575,CALLE,ANTRACITA,35,28045.0,"PARQUE BRONCE II , ASCENDIENTE 1: 024 · LEGA",20170739.0,2005-01-03T00:00:00Z,I2044,AE21,17,INFANTIL,7,"[('INFANTIL', '7')]"
16738,AREA INFANTIL,25,DELICIAS,2.0,ARGANZUELA,OPERATIVO,441564.744,4471897.833,ETRS89,40.39563454,-3.6885643,CALLE,PARROCO EUSEBIO CUENCA,42,28045.0,"CALLE PARROCO EUSEBIO CUENCA 42 , ASCENDIENTE",20102190.0,2005-05-11T00:00:00Z,I2045,AE21,11,INFANTIL,8,"[('INFANTIL', '8')]"
16739,AREA INFANTIL,24,LEGAZPI,2.0,ARGANZUELA,OPERATIVO,441061.75,4470985.97,ETRS89,40.38738455,-3.69440647,CALLE,TERESA LOPEZ VALCARCEL,19,28045.0,"CALLE TERESA LOPEZ VALCARCEL 19 POSTERIOR, ASCENDIENTE",20174517.0,2004-09-13T00:00:00Z,I2046,AE21,13,INFANTIL,4,"[('INFANTIL', '4')]"
16740,AREA INFANTIL,24,LEGAZPI,2.0,ARGANZUELA,OPERATIVO,441060.79,4471314.91,ETRS89,40.39034775,-3.69444821,PASEO,MOLINO,7,28045.0,"PASEO MOLINO FRENTE A Nº 7-9 CALLE/ NERJA, ASCENDIENTE 1: 024 · LEGAZPI",11009202.0,2007-09-13T00:00:00Z,I2047,AE21,7,INFANTIL,2,"[('INFANTIL', '2')]"
16741,AREA INFANTIL,22,ACACIAS,2.0,ARGANZUELA,OPERATIVO,439797.49,4472937.48,ETRS89,40.40487432,-3.70948533,CALLE,CONCEJAL BENITO MARTIN LOZANO,10,28005.0,"CALLE CONCEJAL BENITO MARTIN LOZANO 10 AREA 1, ASCE",11008322.0,2005-03-03T00:00:00Z,I2048,AE21,9,INFANTIL,5,"[('INFANTIL', '4'), ('DEPORTIVAS', '1')]"
16742,AREA INFANTIL,25,DELICIAS,2.0,ARGANZUELA,OPERATIVO,442170.44,4471889.89,ETRS89,40.39560527,-3.68142692,CALLE,MENDEZ ALVARO,64,28045.0,"CALLE MENDEZ ALVARO 64 A-B POST CALLE/ ORIANA , ASCENDIENTE 1: 025 · DELICI",20136169.0,2006-10-30T00:00:00Z,I2049,AE21,6,INFANTIL,3,"[('INFANTIL', '3')]"
16743,AREA INFANTIL,23,CHOPERA,2.0,ARGANZUELA,OPERATIVO,440552.33,4471885.43,ETRS89,40.39545116,-3.70049195,PASEO,CHOPERA,29,28045.0,"PASEO CHOPERA 29 LATERAL, ASCENDIENTE 1: 023 · LA CALLE",11008822.0,2007-04-25T00:00:00Z,I2050,AE21,5,INFANTIL,2,"[('INFANTIL', '2')]"
16744,AREA INFANTIL,25,DELICIAS,2.0,ARGANZUELA,OPERATIVO,441690.18,4472283.69,ETRS89,40.39911934,-3.68712168,CALLE,RAMIREZ DE PRADO,7,28045.0,"CALLE RAMIREZ DE PRADO FRENTE A Nº 7, ASCENDIENTE 1: 025 ·",20171396.0,2005-11-05T00:00:00Z,I2051,AE21,9,INFANTIL,0,[]
16745,AREA INFANTIL,24,LEGAZPI,2.0,ARGANZUELA,OPERATIVO,442281.42,4471255.74,ETRS89,40.38990019,-3.68006181,CALLE,MENESES,6,28045.0,"CALLE MENESES CON AVD DEL PLANETARIO , ASCENDIENTE 1",31045271.0,2004-09-13T00:00:00Z,I2052,AE21,3,INFANTIL,1,"[('INFANTIL', '1')]"
16746,AREA INFANTIL,24,LEGAZPI,2.0,ARGANZUELA,OPERATIVO,442027.06,4471552.0,ETRS89,40.3925514,-3.68308554,CALLE,MENESES,4,28045.0,"PARQUE ENRIQUE TIERNO GALVAN EN FRENTE DE AVD DEL PLANETARIO, ASCENDIENTE 1",31022245.0,2007-04-09T00:00:00Z,I2053,AE21,13,INFANTIL,9,"[('INFANTIL', '9')]"
16747,AREA INFANTIL,21,IMPERIAL,2.0,ARGANZUELA,OPERATIVO,439348.652,4472626.763,ETRS89,40.40204265,-3.71474488,PASEO,IMPERIAL,40,28005.0,"PASEO IMPERIAL 40 TOLEDO AREA 1 (JARDIN CONCHA PIQUER), ASCENDIENTE 1: 021 · IMP",11008227.0,2017-05-01T00:00:00Z,I2054,AE21,7,INFANTIL,3,"[('INFANTIL', '3')]"
16748,AREA INFANTIL,21,IMPERIAL,2.0,ARGANZUELA,OPERATIVO,439381.87,4472619.54,ETRS89,40.40198001,-3.71435277,CALLE,TOLEDO,178,28005.0,"PASEO IMPERIAL 40 TOLEDO AREA 2 (JARDIN CONCHA PIQUER), ASCENDIENTE 1: 021 · IMP",20084999.0,2004-09-13T00:00:00Z,I2055,AE21,5,INFANTIL,1,"[('INFANTIL', '1')]"
16749,AREA INFANTIL,22,ACACIAS,2.0,ARGANZUELA,OPERATIVO,439801.09,4472866.38,ETRS89,40.40423407,-3.70943618,CALLE,SAN ISIDORO DE SEVILLA,17,28005.0,"CALLE CONCEJAL BENITO MARTIN LOZANO 10 AREA 2, ASCE",11008331.0,2006-05-23T00:00:00Z,I2056,AE21,11,INFANTIL,4,"[('INFANTIL', '4')]"
16750,AREA INFANTIL,23,CHOPERA,2.0,ARGANZUELA,OPERATIVO,440641.76,4472165.74,ETRS89,40.39798271,-3.69946437,CALLE,TORRES MIRANDA,12,28045.0,"CALLE TORRES MIRANDA 12 FERNANDO POO (AREA 2) , ASCENDIENTE 1: 023",11008774.0,2003-12-01T00:00:00Z,I2057,AE21,7,INFANTIL,4,"[('INFANTIL', '4')]"
16751,AREA INFANTIL,24,LEGAZPI,2.0,ARGANZUELA,OPERATIVO,442276.77,4471620.62,ETRS89,40.39318691,-3.68014967,CALLE,EROS,6,28045.0,"CALLE ENRIQUE TIERNO GALVAN AL LADO DEL PARKING DEL PLANETARIO, ASCENDIENTE 1: 024 · LEGAZPI , A",31040720.0,2009-01-22T00:00:00Z,I2058,AE21,17,INFANTIL,15,"[('INFANTIL', '15')]"
16752,AREA INFANTIL,24,LEGAZPI,2.0,ARGANZUELA,OPERATIVO,442227.61,4471558.48,ETRS89,40.39262371,-3.68072324,CALLE,ARIEL,7,28045.0,"CALLE ENRIQUE TIERNO GALVAN FRENTE A LA POLICIA MUNICIPAL, ASCENDIENTE 1: 024 · LEGAZPI , A",31011528.0,2009-07-20T00:00:00Z,I2059,AE21,8,INFANTIL,4,"[('INFANTIL', '4')]"
16753,AREA INFANTIL,25,DELICIAS,2.0,ARGANZUELA,OPERATIVO,441364.41,4471951.57,ETRS89,40.39610455,-3.69092969,CALLE,JUAN DE VERA,31,28045.0,"CALLE JUAN DE VERA 31 , ASCENDIENTE 1: 025 ·",31000782.0,2006-12-26T00:00:00Z,I2060,AE21,10,INFANTIL,2,"[('INFANTIL', '2')]"
16754,AREA INFANTIL,24,LEGAZPI,2.0,ARGANZUELA,OPERATIVO,441275.7,4471019.04,ETRS89,40.38769758,-3.69188895,CALLE,TENIENTE CORONEL NORENA,30,28045.0,"CALLE TENIENTE CORONEL NOREÑA 30 , ASCENDIENT",20149326.0,2006-11-15T00:00:00Z,I2061,AE21,8,INFANTIL,5,"[('INFANTIL', '5')]"
16755,AREA INFANTIL,25,DELICIAS,2.0,ARGANZUELA,OPERATIVO,441457.03,4471721.89,ETRS89,40.39404199,-3.68981727,CALLE,GRANITO,34,28045.0,"CALLE GRANITO 34 CALLE/ COBRE, ASCENDIENTE 1: 025 · DELICIAS",31001056.0,2006-02-28T00:00:00Z,I2062,AE21,6,INFANTIL,2,"[('INFANTIL', '2')]"
16756,AREA INFANTIL,23,CHOPERA,2.0,ARGANZUELA,OPERATIVO,440571.32,4472091.49,ETRS89,40.39730881,-3.70028743,CALLE,AGUILON,15,28045.0,"CALLE AGUILON JUNTO Nº15 , ASCENDIENTE 1: 023",11008805.0,2006-12-29T00:00:00Z,I2063,AE21,7,INFANTIL,3,"[('INFANTIL', '3')]"
16757,AREA INFANTIL,21,IMPERIAL,2.0,ARGANZUELA,OPERATIVO,438982.03,4472486.34,ETRS89,40.40075087,-3.71905155,CALLE,SAN EPIFANIO,7,28005.0,"CALLE SAN EPIFANIO 7 POST , ASCENDIENTE 1: 0",31043503.0,2006-12-30T00:00:00Z,I2064,AE21,7,INFANTIL,4,"[('INFANTIL', '4')]"
16758,AREA INFANTIL,27,ATOCHA,2.0,ARGANZUELA,OPERATIVO,442358.801,4472069.395,ETRS89,40.3972354,-3.67922379,CALLE,ALMEZ,2,28045.0,"CALLE TEJO CALLE/ ALMEZ ZONA 5, ASCENDIENTE 1: 027 · ATOCHA , AS",20139361.0,2006-12-26T00:00:00Z,I2065,AE21,11,INFANTIL,17,[]
16759,AREA INFANTIL,27,ATOCHA,2.0,ARGANZUELA,OPERATIVO,442372.22,4472092.02,ETRS89,40.39744015,-3.67906772,CALLE,ALMEZ,2,28045.0,"CALLE TEJO CALLE/ ALMEZ ZONA 4, ASCENDIENTE 1: 027 · ATOCHA , AS",20139361.0,2006-11-15T00:00:00Z,I2066,AE21,9,INFANTIL,17,"[('INFANTIL', '17')]"
16760,AREA INFANTIL,25,DELICIAS,2.0,ARGANZUELA,OPERATIVO,441254.11,4472199.4,ETRS89,40.39832936,-3.69225218,CALLE,TOMAS BRETON,47,28045.0,"CALLE TOMAS BRETON 47 POST , ASCENDIENTE 1:",20100962.0,2007-11-04T00:00:00Z,I2067,AE21,9,INFANTIL,2,"[('INFANTIL', '2')]"
16761,AREA INFANTIL,24,LEGAZPI,2.0,ARGANZUELA,OPERATIVO,441459.71,4471120.01,ETRS89,40.38862012,-3.68973037,CALLE,HIERRO,12,28045.0,"CALLE HIERRO 12 , ASCENDIENTE 1: 024 · LEGAZP",11009347.0,2008-03-10T00:00:00Z,I2068,AE21,15,INFANTIL,2,"[('INFANTIL', '2')]"
16762,AREA INFANTIL,24,LEGAZPI,2.0,ARGANZUELA,OPERATIVO,441440.559,4471165.017,ETRS89,40.38902422,-3.68996013,CALLE,HIERRO,10,28045.0,"CALLE HIERRO 10 , ASCENDIENTE 1: 024 · LEGAZP",11009346.0,2008-03-10T00:00:00Z,I2069,AE21,12,INFANTIL,3,"[('INFANTIL', '3')]"
16763,AREA INFANTIL,24,LEGAZPI,2.0,ARGANZUELA,OPERATIVO,441325.77,4471393.15,ETRS89,40.39107129,-3.69133352,CALLE,RODIO,8,28045.0,"CALLE RODIO HIERRO, ASCENDIENTE 1: 024 · LEGAZPI ,",31019909.0,2009-01-20T00:00:00Z,I2070,AE21,11,INFANTIL,2,"[('INFANTIL', '2')]"
16764,AREA INFANTIL,24,LEGAZPI,2.0,ARGANZUELA,OPERATIVO,441627.63,4471056.236,ETRS89,40.38805739,-3.6877462,CALLE,PUERTO DE BEJAR,5,28045.0,"CALLE PUERTO DE BEJAR PUERTO DE LA CRUZ VERDE, ASCENDIENTE 1: 024 ·",20000292.0,2007-04-04T00:00:00Z,I2071,AE21,8,INFANTIL,17,[]
16766,AREA INFANTIL,25,DELICIAS,2.0,ARGANZUELA,OPERATIVO,441968.056,4471986.514,ETRS89,40.39646163,-3.68382033,CALLE,ORIANA,6,28045.0,"CALLE ESTRELLA NAOS 0 CALLE/ ORIANA, ASCENDIENTE 1: 025 · DE",31014547.0,2007-06-15T00:00:00Z,I2073,AE21,6,INFANTIL,3,"[('INFANTIL', '3')]"
16767,AREA INFANTIL,22,ACACIAS,2.0,ARGANZUELA,OPERATIVO,439636.32,4472820.652,ETRS89,40.4038102,-3.7113735,PASEO,OLMOS,22,28005.0,"PASEO LOS OLMOS 22 POST , ASCENDIENTE 1: 02",20180136.0,2008-10-12T00:00:00Z,I2075,AE21,5,INFANTIL,1,"[('INFANTIL', '1')]"
16768,AREA INFANTIL,23,CHOPERA,2.0,ARGANZUELA,OPERATIVO,440813.154,4471782.25,ETRS89,40.39454024,-3.6974092,PLAZA,JOSE DE VILLARREAL,2,28045.0,"PLAZA JOSE DE VILLARREAL , ASCENDIENTE 1: 0",11008982.0,2009-01-19T00:00:00Z,I2076,AE21,10,INFANTIL,6,"[('INFANTIL', '6')]"
16769,AREA INFANTIL,24,LEGAZPI,2.0,ARGANZUELA,OPERATIVO,441387.14,4470866.67,ETRS89,40.38633279,-3.69056203,CALLE,EMBAJADORES,264,28045.0,"CALLE EMBAJADORES , ASCENDIENTE 1: 024 · LEGA",31011603.0,2009-10-15T00:00:00Z,I2077,AE21,6,INFANTIL,3,"[('INFANTIL', '3')]"
16770,AREA INFANTIL,23,CHOPERA,2.0,ARGANZUELA,OPERATIVO,440821.252,4471651.761,ETRS89,40.3933653,-3.69730166,CALLE,ALEJANDRO SAINT AUBIN,6,28045.0,"CALLE ALEJANDRO SAINT ABUIN Nº4-6 POST , ASCENDIENTE 1",11009058.0,2009-10-15T00:00:00Z,I2078,AE21,6,INFANTIL,5,"[('INFANTIL', '5')]"
16771,AREA INFANTIL,36,NINO JESUS,3.0,RETIRO,OPERATIVO,442795.79,4473226.83,ETRS89,40.40769234,-3.67417882,CALLE,CONDE DE CARTAGENA,21,28007.0,"CALLE CONDE CARTAGENA  , ASCENDIENTE 1: 036 ·",11013283.0,2005-07-26T00:00:00Z,I3001,AE21,11,INFANTIL,3,"[('INFANTIL', '3')]"
16772,AREA INFANTIL,36,NINO JESUS,3.0,RETIRO,OPERATIVO,442784.21,4473209.8,ETRS89,40.40753813,-3.67431375,CALLE,CONDE DE CARTAGENA,23,28007.0,"CALLE CONDE CARTAGENA  , ASCENDIENTE 1: 036 ·",11013284.0,2007-04-25T00:00:00Z,I3002,AE21,7,INFANTIL,2,"[('INFANTIL', '2')]"
16773,AREA INFANTIL,35,LOS JERONIMOS,3.0,RETIRO,OPERATIVO,442084.782,4473271.954,ETRS89,40.40804968,-3.68256193,CALLE,ANDRES TORREJON,19,28014.0,"CALLE ANDRES TORREJON 22 , ASCENDIENTE 1: 035",20008546.0,2004-09-13T00:00:00Z,I3003,AE21,14,INFANTIL,78,"[('INFANTIL', '78')]"
16774,AREA INFANTIL,35,LOS JERONIMOS,3.0,RETIRO,OPERATIVO,442069.094,4473346.473,ETRS89,40.4087199,-3.68275359,CALLE,POETA ESTEBAN DE VILLEGAS,1,28014.0,"CALLE POETA ESTEBAN VILLEGAS , ASCENDIENTE 1:",31014460.0,2020-08-18T00:00:00Z,I3004,AE21,5,INFANTIL,2,"[('DEPORTIVAS', '1'), ('INFANTIL', '1')]"
16776,AREA INFANTIL,31,PACIFICO,3.0,RETIRO,OPERATIVO,442624.139,4472436.332,ETRS89,40.4005593,-3.67613041,CALLE,COCHERAS,1,28007.0,"PARQUE HOYUELO 2 (JUNTO A CANASTAS) CALLE/ COCHERAS, ASCENDIENTE 1: 031 · PACÍFI",20001198.0,2007-02-14T00:00:00Z,I3006,AE21,20,INFANTIL,13,"[('INFANTIL', '13')]"
16777,AREA INFANTIL,33,ESTRELLA,3.0,RETIRO,OPERATIVO,443340.71,4473587.24,ETRS89,40.41097638,-3.66778918,CALLE,ASTROS,14,28007.0,"CALLE ASTROS , ASCENDIENTE 1: 033 · BARRIO DE",11011893.0,2005-07-03T00:00:00Z,I3008,AE21,15,INFANTIL,2,"[('INFANTIL', '2')]"
16778,AREA INFANTIL,32,ADELFAS,3.0,RETIRO,OPERATIVO,443352.34,4472932.288,ETRS89,40.405077,-3.66759382,CALLE,FEDERICO MORENO TORROBA,9,28007.0,"CALLE FEDERICO MORENO TORROBA , ASCENDIENTE 1",31022068.0,2005-03-16T00:00:00Z,I3009,AE21,9,INFANTIL,30,[]
16780,AREA INFANTIL,32,ADELFAS,3.0,RETIRO,OPERATIVO,443417.13,4472897.501,ETRS89,40.40476803,-3.66682722,CALLE,FEDERICO MORENO TORROBA,2,28007.0,"CALLE FEDERICO MORENO TORROBA , ASCENDIENTE 1",11011771.0,2006-07-24T00:00:00Z,I3010,AE21,8,INFANTIL,5,"[('INFANTIL', '5')]"
16781,AREA INFANTIL,32,ADELFAS,3.0,RETIRO,OPERATIVO,443038.458,4472032.091,ETRS89,40.39694611,-3.67121213,CALLE,CERRO NEGRO,5,28007.0,"CALLE CERRO NEGRO 2 CALLE/ JATIVA , ASCENDIENTE 1: 032 · ADEL",31020470.0,2004-01-01T00:00:00Z,I3011,AE21,12,INFANTIL,20,[]
16782,AREA INFANTIL,33,ESTRELLA,3.0,RETIRO,OPERATIVO,443336.68,4473364.92,ETRS89,40.40897333,-3.66781688,PASAJE,CARENA,5,28007.0,"PLAZA VIRGEN DE LA ESTRELLA , ASCENDIENTE 1",11011865.0,2006-03-08T00:00:00Z,I3012,AE21,11,INFANTIL,5,"[('INFANTIL', '5')]"
16783,AREA INFANTIL,36,NINO JESUS,3.0,RETIRO,OPERATIVO,443028.537,4473420.431,ETRS89,40.40945237,-3.67145329,CALLE,JESUS APRENDIZ,19,28007.0,"CALLE JESUS APRENDIZ 19 , ASCENDIENTE 1: 036",11013344.0,2005-12-17T00:00:00Z,I3014,AE21,7,INFANTIL,4,"[('INFANTIL', '4')]"
16784,AREA INFANTIL,32,ADELFAS,3.0,RETIRO,OPERATIVO,443092.232,4472935.598,ETRS89,40.40508908,-3.67065929,CALLE,SANTA SABINA,3,28007.0,"CALLE SANTA SABINA CON DOCTOR ESQUERDO , ASCENDIENTE 1: 032 · ADE",20150592.0,2004-09-13T00:00:00Z,I3015,AE21,15,INFANTIL,6,"[('INFANTIL', '6')]"
16785,AREA INFANTIL,32,ADELFAS,3.0,RETIRO,OPERATIVO,443300.13,4472787.02,ETRS89,40.40376479,-3.66819613,CALLE,LUIS MITJANS,56,28007.0,"PARQUE ADELFAS , ASCENDIENTE 1: 032 · ADELFA",20008476.0,2006-11-17T00:00:00Z,I3016,AE21,8,INFANTIL,5,"[('INFANTIL', '5')]"
16786,AREA INFANTIL,31,PACIFICO,3.0,RETIRO,OPERATIVO,441846.71,4473064.698,ETRS89,40.40616602,-3.68534861,PASEO,REINA CRISTINA,1,28014.0,"AVENIDA CIUDAD DE BARCELONA , ASCENDIENTE 1:",11013032.0,2005-06-10T00:00:00Z,I3017,AE21,10,INFANTIL,7,"[('INFANTIL', '7')]"
16787,AREA INFANTIL,36,NINO JESUS,3.0,RETIRO,OPERATIVO,442995.25,4474087.81,ETRS89,40.4154622,-3.67190538,PLAZA,DOCTOR LAGUNA,6,28009.0,"PLAZA DOCTOR LAGUNA 6 , ASCENDIENTE 1: 036",11013587.0,2006-03-22T00:00:00Z,I3018,AE21,9,INFANTIL,4,"[('INFANTIL', '4')]"
16788,AREA INFANTIL,36,NINO JESUS,3.0,RETIRO,OPERATIVO,442726.94,4474068.56,ETRS89,40.41527036,-3.67506596,CALLE,PIO BAROJA,2,28009.0,"CALLE PIO BAROJA 2 , ASCENDIENTE 1: 036 · BAR",11013569.0,2003-09-01T00:00:00Z,I3019,AE21,14,INFANTIL,3,"[('INFANTIL', '3')]"
16790,AREA INFANTIL,36,NINO JESUS,3.0,RETIRO,OPERATIVO,442640.009,4473698.876,ETRS89,40.41193407,-3.6760572,CALLE,ANUNCIACION,4,28009.0,"CALLE ANUNCIACION 4 , ASCENDIENTE 1: 036 · BA",11013529.0,2006-10-02T00:00:00Z,I3020,AE21,29,INFANTIL,14,"[('INFANTIL', '14')]"
16792,AREA INFANTIL,33,ESTRELLA,3.0,RETIRO,OPERATIVO,443378.82,4474463.31,ETRS89,40.41887109,-3.66741802,CALLE,VAQUERIAS,8,28007.0,"CALLE VAQUERIAS , ASCENDIENTE 1: 033 · BARRIO",20150583.0,2005-07-26T00:00:00Z,I3022,AE21,9,INFANTIL,8,[]
16793,AREA INFANTIL,32,ADELFAS,3.0,RETIRO,OPERATIVO,443388.767,4473037.936,ETRS89,40.40603122,-3.66717395,AVENIDA,MEDITERRANEO,62,28007.0,"AVENIDA MEDITERRANEO 62 , ASCENDIENTE 1: 032",20008484.0,2005-07-26T00:00:00Z,I3023,AE21,12,INFANTIL,3,"[('INFANTIL', '3')]"
16799,AREA DE MAYORES,33,ESTRELLA,3.0,RETIRO,OPERATIVO,443918.12,4474227.36,ETRS89,40.41678204,-3.66104066,CALLE,JUAN ESPLANDIU,8,28007.0,"PARQUE ROMA JUNTO FUENTE , ASCEN",11013637.0,2004-01-01T00:00:00Z,M0303,AE21,2,MAYORES,4,"[('MAYORES', '3'), ('DEPORTIVAS', '1')]"
16805,AREA INFANTIL,33,ESTRELLA,3.0,RETIRO,OPERATIVO,443607.02,4473992.95,ETRS89,40.41464933,-3.6646866,CALLE,PEZ VOLADOR,28,28007.0,"PARQUE PEZ VOLADOR , ASCENDIENTE 1: 033 · BA",11011970.0,2006-12-14T00:00:00Z,I3036,AE21,8,INFANTIL,6,"[('INFANTIL', '6')]"
16811,AREA INFANTIL,33,ESTRELLA,3.0,RETIRO,OPERATIVO,443567.16,4474428.68,ETRS89,40.41857192,-3.66519505,CALLE,JUAN ESPLANDIU,11,28007.0,"PARQUE ROMA , ASCENDIENTE 1: 033 · BARRIO DE",11012085.0,2007-06-06T00:00:00Z,I3041,AE21,13,INFANTIL,6,"[('INFANTIL', '6')]"
16812,AREA INFANTIL,33,ESTRELLA,3.0,RETIRO,OPERATIVO,443873.7,4474309.32,ETRS89,40.41751739,-3.66157144,CALLE,JUAN ESPLANDIU,12,28007.0,"PARQUE ROMA , ASCENDIENTE 1: 033 · BARRIO DE",11013639.0,2006-12-14T00:00:00Z,I3042,AE21,13,INFANTIL,5,"[('INFANTIL', '5')]"
16813,AREA INFANTIL,33,ESTRELLA,3.0,RETIRO,OPERATIVO,443898.06,4474147.49,ETRS89,40.41606118,-3.66127005,CALLE,JUAN ESPLANDIU,4,28007.0,"PARQUE ROMA , ASCENDIENTE 1: 033 · BARRIO DE",31020467.0,2006-03-10T00:00:00Z,I3043,AE21,8,INFANTIL,9,"[('INFANTIL', '5'), ('DEPORTIVAS', '3'), ('MAYORES', '1')]"
16815,AREA INFANTIL,32,ADELFAS,3.0,RETIRO,OPERATIVO,443196.31,4472743.82,ETRS89,40.40336855,-3.6694157,CALLE,LUIS MITJANS,52,28007.0,"CALLE LUIS MITJANS 56 , ASCENDIENTE 1: 032 ·",20182671.0,2007-04-25T00:00:00Z,I3045,AE21,8,INFANTIL,0,[]
16816,AREA INFANTIL,31,PACIFICO,3.0,RETIRO,OPERATIVO,442392.16,4472475.76,ETRS89,40.40089847,-3.67886749,CALLE,TELLEZ,31,28007.0,"CALLE TELLEZ 30 AREA 1, ASCENDIENTE 1: 031 · PACÍFI",20088240.0,2005-03-03T00:00:00Z,I3047,AE21,8,INFANTIL,6,[]
16820,AREA INFANTIL,31,PACIFICO,3.0,RETIRO,OPERATIVO,442445.65,4472446.11,ETRS89,40.40063506,-3.67823451,CALLE,TELLEZ,31,28007.0,"CALLE TELLEZ 30 AREA 2, ASCENDIENTE 1: 031 · PACÍFI",20088240.0,2005-03-03T00:00:00Z,I3050,AE21,4,INFANTIL,6,"[('INFANTIL', '6')]"
16821,AREA INFANTIL,31,PACIFICO,3.0,RETIRO,OPERATIVO,441940.419,4472733.715,ETRS89,40.40319089,-3.68421411,CALLE,ANTONIO NEBRIJA,9,28007.0,"CALLE TELLEZ , ASCENDIENTE 1: 031 · PACÍFIC",31021357.0,2006-09-20T00:00:00Z,I3051,AE21,13,INFANTIL,5,"[('INFANTIL', '5')]"
16822,AREA INFANTIL,36,NINO JESUS,3.0,RETIRO,OPERATIVO,443006.69,4473385.991,ETRS89,40.40914062,-3.67170768,CALLE,TITULCIA,17,28007.0,"CALLE TITULCIA 17 POST , ASCENDIENTE 1: 036",11013412.0,2007-04-25T00:00:00Z,I3052,AE21,9,INFANTIL,3,"[('INFANTIL', '3')]"
16823,AREA INFANTIL,32,ADELFAS,3.0,RETIRO,OPERATIVO,442974.32,4472528.63,ETRS89,40.40141482,-3.67201234,CALLE,CATALINA SUAREZ,20,28007.0,"CALLE CATALINA SUAREZ 16-22 , ASCENDIENTE 1:",11011563.0,2006-12-17T00:00:00Z,I3053,AE21,15,INFANTIL,10,"[('INFANTIL', '10')]"
16825,AREA INFANTIL,32,ADELFAS,3.0,RETIRO,OPERATIVO,443221.08,4472308.56,ETRS89,40.39944917,-3.66908498,CALLE,ARREGUI Y ARUEJ,6,28007.0,"CALLE ARREGUI Y ARRUEJ 5-11 , ASCENDIENTE 1:",20003090.0,2007-10-30T00:00:00Z,I3055,AE21,21,INFANTIL,7,"[('INFANTIL', '7')]"
16827,AREA INFANTIL,32,ADELFAS,3.0,RETIRO,OPERATIVO,442801.54,4472332.47,ETRS89,40.39963585,-3.67403068,CALLE,JATIVA,13,28007.0,"CALLE HERMANOS RUIZ 7-13 CALLE, ASCENDIENTE 1: 031",20152392.0,2010-02-22T00:00:00Z,I3057,AE21,2,INFANTIL,1,"[('INFANTIL', '1')]"
16830,AREA INFANTIL,44,GUINDALERA,4.0,SALAMANCA,OPERATIVO,443975.66,4476424.17,ETRS89,40.43657596,-3.66055606,AVENIDA,BRASILIA,2,28028.0,"PARQUE BREOGAN , ASCENDIENTE 1: 044 · GUINDA",31026005.0,2006-01-26T00:00:00Z,I4001,AE21,8,INFANTIL,13,"[('INFANTIL', '12'), ('DEPORTIVAS', '1')]"
16831,AREA INFANTIL,44,GUINDALERA,4.0,SALAMANCA,OPERATIVO,444005.65,4476679.06,ETRS89,40.43887416,-3.66022495,AVENIDA,BRASILIA,13,28028.0,"PARQUE BREOGAN , ASCENDIENTE 1: 044 · GUINDA",11017861.0,2005-10-18T00:00:00Z,I4002,AE21,7,INFANTIL,8,[]
16832,AREA INFANTIL,44,GUINDALERA,4.0,SALAMANCA,OPERATIVO,443892.9,4477142.91,ETRS89,40.44304516,-3.66159525,AVENIDA,BAVIERA,20,28028.0,"AVENIDA BAVIERA 20 , ASCENDIENTE 1: 044 · GU",11017901.0,2005-05-11T00:00:00Z,I4003,AE21,8,INFANTIL,3,"[('INFANTIL', '3')]"
16833,AREA INFANTIL,45,LISTA,4.0,SALAMANCA,OPERATIVO,442639.57,4476362.831,ETRS89,40.43593231,-3.67630269,CALLE,FRANCISCO SILVELA,73,28028.0,"CALLE FRANCISCO SILVELA , ASCENDIENTE 1: 045",11018901.0,2005-11-17T00:00:00Z,I4004,AE21,6,INFANTIL,4,"[('INFANTIL', '4')]"
16834,AREA INFANTIL,43,FUENTE DEL BERRO,4.0,SALAMANCA,OPERATIVO,443853.81,4475603.09,ETRS89,40.42917102,-3.66192011,PLAZA,AMERICA ESPANOLA,5,28028.0,"PLAZA AMÉRICA ESPAÑOLA , ASCENDIENTE 1: 043",31047835.0,2005-11-17T00:00:00Z,I4005,AE21,17,INFANTIL,14,"[('INFANTIL', '14')]"
16835,AREA INFANTIL,44,GUINDALERA,4.0,SALAMANCA,OPERATIVO,443967.94,4476962.91,ETRS89,40.44142869,-3.66069459,AVENIDA,BRASILIA,33,28028.0,"PARQUE BREOGAN , ASCENDIENTE 1: 044 · GUINDA",31050981.0,2006-03-10T00:00:00Z,I4006,AE21,8,INFANTIL,4,[]
16836,AREA INFANTIL,45,LISTA,4.0,SALAMANCA,OPERATIVO,442418.293,4476084.279,ETRS89,40.43340769,-3.67888622,CALLE,PRINCIPE DE VERGARA,68,28006.0,"CALLE PRINCIPE DE VERGARA 68 , ASCENDIENTE 1:",11019477.0,2006-09-02T00:00:00Z,I4007,AE21,26,INFANTIL,8,"[('INFANTIL', '8')]"
16837,AREA INFANTIL,44,GUINDALERA,4.0,SALAMANCA,OPERATIVO,443289.44,4475651.37,ETRS89,40.42956767,-3.66857748,CALLE,DOCTOR GOMEZ ULLA,3,28028.0,"PARQUE EVA DUARTE DE PERÓN , ASCENDIENTE 1:",20120165.0,2004-09-13T00:00:00Z,I4009,AE21,16,INFANTIL,5,"[('INFANTIL', '5')]"
16838,AREA DE MAYORES,43,FUENTE DEL BERRO,4.0,SALAMANCA,OPERATIVO,443416.14,4475019.55,ETRS89,40.42388453,-3.66702764,CALLE,LOS PENASCALES,13,28028.0,"CALLE PEÑASCALES CON ANTONIO TOLEDANO , ASC",11016409.0,2004-01-01T00:00:00Z,M0401,AE21,6,MAYORES,14,"[('MAYORES', '14')]"
16839,AREA INFANTIL,44,GUINDALERA,4.0,SALAMANCA,OPERATIVO,443253.16,4475647.25,ETRS89,40.42952808,-3.6690048,CALLE,PARQUE EVA DUARTE DE PERÓN  ASCENDIENTE 1,4,28028.0,"PARQUE EVA DUARTE DE PERÓN , ASCENDIENTE 1:",31004602.0,2005-11-18T00:00:00Z,I4010,AE21,15,INFANTIL,8,[]
16840,AREA INFANTIL,44,GUINDALERA,4.0,SALAMANCA,OPERATIVO,443227.53,4475638.73,ETRS89,40.42944958,-3.66930617,CALLE,FRANCISCO SILVELA,4,28028.0,"PARQUE EVA DUARTE DE PERÓN , ASCENDIENTE 1:",31004602.0,2005-11-10T00:00:00Z,I4011,AE21,13,INFANTIL,8,"[('INFANTIL', '8')]"
16841,AREA INFANTIL,44,GUINDALERA,4.0,SALAMANCA,OPERATIVO,443902.26,4476445.58,ETRS89,40.43676389,-3.66142332,CALLE,BRESCIA,21,28028.0,"CALLE BRESCIA , ASCENDIENTE 1: 044 · GUINDALE",31007330.0,2005-11-18T00:00:00Z,I4012,AE21,12,INFANTIL,9,[]
16842,AREA INFANTIL,44,GUINDALERA,4.0,SALAMANCA,OPERATIVO,443818.941,4476681.225,ETRS89,40.43888107,-3.66242647,AVENIDA,BONN,19,28028.0,"AVENIDA BONN 19 , ASCENDIENTE 1: 044 · GUIND",11017858.0,2006-12-30T00:00:00Z,I4013,AE21,21,INFANTIL,6,"[('INFANTIL', '6')]"
16843,AREA INFANTIL,44,GUINDALERA,4.0,SALAMANCA,OPERATIVO,443612.603,4476948.821,ETRS89,40.44127775,-3.66488298,AVENIDA,BAVIERA,1,28028.0,"AVENIDA BAVIERA 1 , ASCENDIENTE 1: 044 · GUI",11017949.0,2006-03-28T00:00:00Z,I4014,AE21,15,INFANTIL,4,[]
16844,AREA INFANTIL,44,GUINDALERA,4.0,SALAMANCA,OPERATIVO,443511.159,4476509.273,ETRS89,40.43731119,-3.66603998,CALLE,BOSTON,2,28028.0,"CALLE BOSTON 2 , ASCENDIENTE 1: 044 · GUINDAL",11018039.0,2006-04-07T00:00:00Z,I4015,AE21,13,INFANTIL,7,"[('INFANTIL', '7')]"
16845,AREA INFANTIL,44,GUINDALERA,4.0,SALAMANCA,OPERATIVO,443630.54,4476660.95,ETRS89,40.43868568,-3.66464595,CALLE,BOLONIA,3,28028.0,"CALLE BOLONIA 3 , ASCENDIENTE 1: 044 · GUINDA",11017975.0,2006-10-02T00:00:00Z,I4016,AE21,8,INFANTIL,1,"[('INFANTIL', '1')]"
16846,AREA INFANTIL,44,GUINDALERA,4.0,SALAMANCA,OPERATIVO,443639.02,4476678.14,ETRS89,40.43884111,-3.6645475,CALLE,BOLONIA,5,28028.0,"CALLE BOLONIA 5 , ASCENDIENTE 1: 044 · GUINDA",11017976.0,2013-05-19T00:00:00Z,I4017,AE21,8,INFANTIL,2,"[('INFANTIL', '2')]"
16847,AREA INFANTIL,43,FUENTE DEL BERRO,4.0,SALAMANCA,OPERATIVO,443572.9,4475329.01,ETRS89,40.42668296,-3.66520728,CALLE,RUFINO BLANCO,27,28028.0,"CALLE RUFINO BLANCO 24 - 26 , ASCENDIENTE 1:",31034502.0,2005-09-13T00:00:00Z,I4018,AE21,10,INFANTIL,1,"[('INFANTIL', '1')]"
16848,AREA INFANTIL,43,FUENTE DEL BERRO,4.0,SALAMANCA,OPERATIVO,443934.608,4475080.897,ETRS89,40.42447228,-3.66092158,CALLE,DOLORES ROMERO,53,28028.0,"PARQUE LA QUINTA FUENTE EL BERRO , ASCENDIEN",11016068.0,2005-09-20T00:00:00Z,I4019,AE21,13,INFANTIL,9,[]
16849,AREA DE MAYORES,44,GUINDALERA,4.0,SALAMANCA,OPERATIVO,443192.344,4475692.469,ETRS89,40.42993129,-3.66972577,CALLE,FRANCISCO SILVELA,12,28028.0,"PARQUE PARQUE EVA DUARTE PERON , ASCENDI",11017054.0,2004-01-01T00:00:00Z,M0402,AE21,11,MAYORES,16,"[('MAYORES', '16')]"
16850,AREA INFANTIL,46,CASTELLANA,4.0,SALAMANCA,OPERATIVO,441680.274,4475656.102,ETRS89,40.42949904,-3.68754756,CALLE,SERRANO,66,28001.0,"CALLE SERRANO 66 , ASCENDIENTE 1: 046 · LA",11019734.0,2006-11-13T00:00:00Z,I4020,AE21,12,INFANTIL,12,"[('INFANTIL', '12')]"
16851,AREA INFANTIL,42,GOYA,4.0,SALAMANCA,OPERATIVO,442883.134,4474996.602,ETRS89,40.42364139,-3.6733084,CALLE,ANTONIA MERCE,4,28009.0,"PLAZA DEL SALVADOR DALI , ASCENDIENTE 1: 04",31017218.0,2014-05-15T00:00:00Z,I4021,AE21,5,INFANTIL,2,"[('INFANTIL', '2')]"
16852,AREA INFANTIL,42,GOYA,4.0,SALAMANCA,OPERATIVO,442899.04,4475078.059,ETRS89,40.42437629,-3.67312822,CALLE,ANTONIA MERCE,6,28009.0,"PLAZA DEL SALVADOR DALI , ASCENDIENTE 1: 04",20103477.0,2008-09-10T00:00:00Z,I4022,AE21,9,INFANTIL,4,"[('INFANTIL', '4')]"
16853,AREA INFANTIL,44,GUINDALERA,4.0,SALAMANCA,OPERATIVO,443415.077,4475897.399,ETRS89,40.43179258,-3.6671183,CALLE,CAMPANAR,9,28028.0,"CALLE CAMPANAR 9 , ASCENDIENTE 1: 044 · GUIND",31007318.0,2006-11-13T00:00:00Z,I4023,AE21,11,INFANTIL,3,"[('INFANTIL', '3')]"
16854,AREA INFANTIL,44,GUINDALERA,4.0,SALAMANCA,OPERATIVO,443077.48,4476355.07,ETRS89,40.43589248,-3.6711392,CALLE,JOSE PICON,26,28028.0,"CALLE JOSE PICON , ASCENDIENTE 1: 044 · GUIND",11018634.0,2006-11-13T00:00:00Z,I4024,AE21,9,INFANTIL,6,"[('MAYORES', '5'), ('INFANTIL', '1')]"
16855,AREA INFANTIL,43,FUENTE DEL BERRO,4.0,SALAMANCA,OPERATIVO,443936.72,4475137.99,ETRS89,40.42498675,-3.66090171,PASEO,MARQUES DE ZAFRA,63,28028.0,"PARQUE LA QUINTA FUENTE EL BERRO , ASCENDIEN",31028026.0,2007-02-20T00:00:00Z,I4025,AE21,3,INFANTIL,1,"[('INFANTIL', '1')]"
16856,AREA INFANTIL,44,GUINDALERA,4.0,SALAMANCA,OPERATIVO,443168.98,4476154.81,ETRS89,40.4340947,-3.67004254,PLAZA,SAN CAYETANO,1,28028.0,"PLAZA SAN CAYETANO , ASCENDIENTE 1: 044 · G",31050667.0,2013-01-09T00:00:00Z,I4026,AE21,8,INFANTIL,9,[]
16858,AREA INFANTIL,44,GUINDALERA,4.0,SALAMANCA,OPERATIVO,443245.58,4476281.12,ETRS89,40.43523779,-3.66915075,CALLE,ERASO,41,28028.0,"CALLE ERASO 41 , ASCENDIENTE 1: 044 · GUINDAL",11018364.0,2006-04-05T00:00:00Z,I4028,AE21,9,INFANTIL,4,"[('INFANTIL', '4')]"
16859,AREA INFANTIL,44,GUINDALERA,4.0,SALAMANCA,OPERATIVO,443540.29,4476722.25,ETRS89,40.43923177,-3.66571546,CALLE,LA POVEDA,10,28028.0,"CALLE LA POVEDA 10 , ASCENDIENTE 1: 044 · GUI",11018254.0,2009-02-10T00:00:00Z,I4029,AE21,6,INFANTIL,1,"[('INFANTIL', '1')]"
16860,AREA DE MAYORES,44,GUINDALERA,4.0,SALAMANCA,OPERATIVO,443961.408,4476996.967,ETRS89,40.44173505,-3.66077461,AVENIDA,BRASILIA,35,28028.0,"PARQUE BREOGAN CON AVENIDABRASILIA Nº35 , AS",11017893.0,2004-01-01T00:00:00Z,M0403,AE21,3,MAYORES,2,"[('MAYORES', '2')]"
16861,AREA INFANTIL,44,GUINDALERA,4.0,SALAMANCA,OPERATIVO,443832.74,4476117.95,ETRS89,40.43380773,-3.66221399,AVENIDA,TOREROS,73,28028.0,"AVENIDA DE LOS TOREROS 73 , ASCENDIENTE 1: 0",11017734.0,2007-05-06T00:00:00Z,I4030,AE21,11,INFANTIL,5,"[('INFANTIL', '5')]"
16862,AREA INFANTIL,43,FUENTE DEL BERRO,4.0,SALAMANCA,OPERATIVO,443406.96,4475020.59,ETRS89,40.42389328,-3.66713594,CALLE,LOS PENASCALES,8,28028.0,"CALLE PEÑASCALES 8 , ASCENDIENTE 1: 043 · FUE",11016355.0,2008-06-10T00:00:00Z,I4031,AE21,5,INFANTIL,2,"[('INFANTIL', '2')]"
16863,AREA INFANTIL,43,FUENTE DEL BERRO,4.0,SALAMANCA,OPERATIVO,443570.4,4474716.71,ETRS89,40.42116687,-3.66518241,CALLE,ELVIRA,31,28028.0,"CALLE ELVIRA 31 , ASCENDIENTE 1: 043 · FUENTE",20182773.0,2008-09-10T00:00:00Z,I4032,AE21,6,INFANTIL,5,"[('INFANTIL', '5')]"
16864,AREA INFANTIL,44,GUINDALERA,4.0,SALAMANCA,OPERATIVO,442833.22,4476551.35,ETRS89,40.43764392,-3.67403659,CALLE,PILAR DE ZARAGOZA,89,28028.0,"CALLE PILAR DE ZARAGOZA 89 , ASCENDIENTE 1: 0",11018821.0,2010-04-14T00:00:00Z,I4033,AE21,8,INFANTIL,5,"[('INFANTIL', '5')]"
16865,AREA INFANTIL,42,GOYA,4.0,SALAMANCA,OPERATIVO,443161.19,4475292.682,ETRS89,40.42632767,-3.67005729,CALLE,LUIS VILLA,7,28009.0,"CALLE LUIS VILLA , ASCENDIENTE 1: 046 · LA",11015448.0,2010-10-20T00:00:00Z,I4034,AE21,7,INFANTIL,1,"[('INFANTIL', '1')]"
16866,AREA INFANTIL,56,CASTILLA,5.0,CHAMARTIN,OPERATIVO,441919.5,4481021.163,ETRS89,40.47784666,-3.68521824,CALLE,CONDE DE TORRALBA,6,28046.0,"CALLE CONDE DE TORRALBA 6 , ASCENDIENTE 1: 05",11027363.0,2006-04-17T00:00:00Z,I5001,AE21,20,INFANTIL,9,"[('INFANTIL', '9')]"
16867,AREA INFANTIL,56,CASTILLA,5.0,CHAMARTIN,OPERATIVO,442801.33,4481173.23,ETRS89,40.47927775,-3.67482905,AVENIDA,BURGOS,30,28036.0,"AVENIDA BURGOS 30 , ASCENDIENTE 1: 056 · CAS",11027413.0,2005-07-30T00:00:00Z,I5002,AE21,14,INFANTIL,6,"[('INFANTIL', '6')]"
16868,AREA INFANTIL,56,CASTILLA,5.0,CHAMARTIN,OPERATIVO,441887.87,4480661.98,ETRS89,40.47460878,-3.68555846,CALLE,DANIEL VAZQUEZ DIAZ,2,28046.0,"CALLE DANIEL VAZQUEZ DIAZ , ASCENDIENTE 1: 05",31021939.0,2007-05-04T00:00:00Z,I5003,AE21,16,INFANTIL,4,"[('INFANTIL', '4')]"
16869,AREA INFANTIL,56,CASTILLA,5.0,CHAMARTIN,OPERATIVO,441750.87,4479933.35,ETRS89,40.46803538,-3.68710766,CALLE,AGUSTIN DE FOXA,12,28036.0,"CALLE AGUSTÍN DE FOXÁ , ASCENDIENTE 1: 056 ·",20047722.0,2005-12-21T00:00:00Z,I5004,AE21,9,INFANTIL,4,"[('INFANTIL', '4')]"
16870,AREA INFANTIL,56,CASTILLA,5.0,CHAMARTIN,OPERATIVO,442580.22,4480466.31,ETRS89,40.47289425,-3.67737353,CALLE,BUGANVILLA,13,28036.0,"CALLE BUGANVILLA , ASCENDIENTE 1: 056 · CASTI",20156532.0,2007-12-02T00:00:00Z,I5005,AE21,17,INFANTIL,4,"[('INFANTIL', '4')]"
16871,AREA INFANTIL,56,CASTILLA,5.0,CHAMARTIN,OPERATIVO,442277.168,4480171.837,ETRS89,40.47022051,-3.68092156,PLAZA,INFANCIA,4,28036.0,"PLAZA LA INFANCIA , ASCENDIENTE 1: 056 ·",11026999.0,2006-12-12T00:00:00Z,I5006,AE21,13,INFANTIL,4,"[('INFANTIL', '4')]"
16872,AREA INFANTIL,55,NUEVA ESPANA,5.0,CHAMARTIN,OPERATIVO,442715.22,4479206.98,ETRS89,40.46155897,-3.67566735,CALLE,MADRE DE DIOS,2,28016.0,"CALLE JARDIN DE GLORIA FUERTES , ASCENDIENTE",11026761.0,2004-09-13T00:00:00Z,I5007,AE21,16,INFANTIL,20,"[('INFANTIL', '20')]"
16873,AREA INFANTIL,55,NUEVA ESPANA,5.0,CHAMARTIN,OPERATIVO,443147.97,4479507.41,ETRS89,40.4642951,-3.67059037,CALLE,SANTA MARIA MAGDALENA,24,28016.0,"CALLE SANTA Mª MAGDALENA , ASCENDIENTE 1: 055",31008558.0,2005-12-19T00:00:00Z,I5008,AE21,18,INFANTIL,4,"[('INFANTIL', '4')]"
16874,AREA INFANTIL,55,NUEVA ESPANA,5.0,CHAMARTIN,OPERATIVO,443191.06,4479080.26,ETRS89,40.46045008,-3.6700439,CALLE,SANTA MARIA MAGDALENA,2,28016.0,"AVENIDA ALFONSO XIII , ASCENDIENTE 1: 055 ·",11026908.0,2006-10-03T00:00:00Z,I5009,AE21,6,INFANTIL,2,"[('INFANTIL', '2')]"
16875,AREA DE MAYORES,52,PROSPERIDAD,5.0,CHAMARTIN,OPERATIVO,443290.55,4477480.69,ETRS89,40.44604719,-3.66872765,CALLE,BAEZA,9,28002.0,"CALLE BAEZA  Nº9 7 , ASCENDIENTE 1: 052 · PRO",11022257.0,2006-01-29T00:00:00Z,M0501,AE21,8,MAYORES,7,"[('MAYORES', '7')]"
16876,AREA INFANTIL,55,NUEVA ESPANA,5.0,CHAMARTIN,OPERATIVO,443167.31,4479101.4,ETRS89,40.4606389,-3.6703259,CALLE,ENRIQUE JARDIEL PONCELA,7,28016.0,"CALLE ENRIQUE JARDIEL PONCELA 11 , ASCENDIENT",20010254.0,2005-01-12T00:00:00Z,I5010,AE21,18,INFANTIL,5,"[('INFANTIL', '5')]"
16877,AREA INFANTIL,55,NUEVA ESPANA,5.0,CHAMARTIN,OPERATIVO,443374.458,4479421.755,ETRS89,40.46353895,-3.66791139,CALLE,FEDERICO SALMON,12,28016.0,"CALLE FEDERICO SALMÓN , ASCENDIENTE 1: 055 ·",31007837.0,2006-11-24T00:00:00Z,I5011,AE21,15,INFANTIL,4,"[('INFANTIL', '4')]"
16878,AREA INFANTIL,55,NUEVA ESPANA,5.0,CHAMARTIN,OPERATIVO,443055.44,4479253.67,ETRS89,40.46200296,-3.67165895,CALLE,TORPEDERO TUCUMAN,24,28016.0,"CALLE TORPEDERO TUCUMÁN , ASCENDIENTE 1: 055",11026835.0,2004-09-13T00:00:00Z,I5012,AE21,30,INFANTIL,5,"[('INFANTIL', '5')]"
16879,AREA INFANTIL,54,HISPANOAMERICA,5.0,CHAMARTIN,OPERATIVO,442721.2,4478123.17,ETRS89,40.45179592,-3.67549903,AVENIDA,RAMON Y CAJAL,7,28016.0,"AVENIDA RAMÓN Y CAJAL , ASCENDIENTE 1: 054 ·",11024266.0,2006-04-18T00:00:00Z,I5013,AE21,15,INFANTIL,12,"[('INFANTIL', '12')]"
16880,AREA INFANTIL,54,HISPANOAMERICA,5.0,CHAMARTIN,OPERATIVO,442272.237,4478497.888,ETRS89,40.45514049,-3.68082745,PLAZA,VALPARAISO,3,28016.0,"PLAZA VALPARAÍSO , ASCENDIENTE 1: 054 · HIS",20089487.0,2006-11-23T00:00:00Z,I5014,AE21,21,INFANTIL,4,"[('INFANTIL', '4')]"
16881,AREA INFANTIL,54,HISPANOAMERICA,5.0,CHAMARTIN,OPERATIVO,441715.781,4478855.637,ETRS89,40.45832441,-3.68742256,CALLE,DOCTOR FLEMING,34,28036.0,"CALLE DOCTOR FLEMING 34 , ASCENDIENTE 1: 054",11025632.0,2023-07-02T00:00:00Z,I5015,AE21,16,INFANTIL,5,"[('INFANTIL', '5')]"
16882,AREA INFANTIL,54,HISPANOAMERICA,5.0,CHAMARTIN,OPERATIVO,441593.38,4478522.96,ETRS89,40.45531892,-3.68883549,CALLE,MANUEL DE FALLA,3,28036.0,"CALLE MANUEL DE FALLA, 3-5 , ASCENDIENTE 1: 0",11025610.0,2005-05-25T00:00:00Z,I5016,AE21,10,INFANTIL,0,[]
16883,AREA INFANTIL,55,NUEVA ESPANA,5.0,CHAMARTIN,OPERATIVO,441754.204,4478987.636,ETRS89,40.45951621,-3.68698153,AVENIDA,ALBERTO ALCOCER,9,28036.0,"JARDINES SAN FERNANDO DEL JARAMA  1 , ASCEN",11025686.0,2005-09-27T00:00:00Z,I5017,AE21,20,INFANTIL,8,[]
16884,AREA INFANTIL,55,NUEVA ESPANA,5.0,CHAMARTIN,OPERATIVO,441696.43,4478955.068,ETRS89,40.45921877,-3.68765991,AVENIDA,ALBERTO ALCOCER,9,28036.0,"JARDINES SAN FERNANDO DEL JARAMA   2 , ASCE",11025686.0,2010-10-15T00:00:00Z,I5018,AE21,13,INFANTIL,8,"[('INFANTIL', '8')]"
16885,AREA INFANTIL,54,HISPANOAMERICA,5.0,CHAMARTIN,OPERATIVO,442381.18,4478627.17,ETRS89,40.45631268,-3.67955442,CALLE,VICTOR ANDRES BELAUNDE,25,28016.0,"PLAZA JUAN DE LA COSSA , ASCENDIENTE 1: 054",11025460.0,2005-10-20T00:00:00Z,I5019,AE21,26,INFANTIL,6,"[('INFANTIL', '6')]"
16886,AREA DE MAYORES,56,CASTILLA,5.0,CHAMARTIN,OPERATIVO,441925.878,4481298.111,ETRS89,40.48034196,-3.68516836,PASEO,CASTELLANA,300,28046.0,"PASEO PASEO DE LA CASTELLANA Nº300 , ASCENDI",20151190.0,2004-01-01T00:00:00Z,M0502,AE21,12,MAYORES,14,"[('MAYORES', '14')]"
16887,AREA INFANTIL,54,HISPANOAMERICA,5.0,CHAMARTIN,OPERATIVO,442946.195,4478610.519,ETRS89,40.45620166,-3.6728896,CALLE,VICTOR DE LA SERNA,33,28016.0,"CALLE VICTOR DE LA SERNA 31 - 33 , ASCENDIENT",31032413.0,2005-03-08T00:00:00Z,I5020,AE21,16,INFANTIL,0,[]
16888,AREA INFANTIL,54,HISPANOAMERICA,5.0,CHAMARTIN,OPERATIVO,442738.874,4478603.439,ETRS89,40.45612362,-3.67533393,CALLE,PUERTO RICO,27,28016.0,"CALLE PUERTO RICO 27 , ASCENDIENTE 1: 054 · H",11025193.0,2006-02-01T00:00:00Z,I5021,AE21,13,INFANTIL,10,[]
16889,AREA INFANTIL,54,HISPANOAMERICA,5.0,CHAMARTIN,OPERATIVO,443338.03,4478807.81,ETRS89,40.45800576,-3.66828623,CALLE,COLOMBIA,52,28016.0,"CALLE COLOMBIA 52 , ASCENDIENTE 1: 054 · HISP",11025078.0,2018-11-17T00:00:00Z,I5022,AE21,6,INFANTIL,7,[]
16890,AREA INFANTIL,54,HISPANOAMERICA,5.0,CHAMARTIN,OPERATIVO,443661.55,4478357.49,ETRS89,40.45397106,-3.66443083,PASEO,CEREZOS,6,28016.0,"CALLE JACINTOS, 43-45",31049108.0,2005-12-21T00:00:00Z,I5024,AE21,11,INFANTIL,5,"[('INFANTIL', '5')]"
16891,AREA INFANTIL,54,HISPANOAMERICA,5.0,CHAMARTIN,OPERATIVO,443136.794,4478459.315,ETRS89,40.45485261,-3.67062829,CALLE,PRIMERA,22,28016.0,"CALLE PRIMERA 22 , ASCENDIENTE 1: 054 · HISPA",11025042.0,2007-04-17T00:00:00Z,I5025,AE21,12,INFANTIL,4,"[('INFANTIL', '4')]"
16892,AREA INFANTIL,54,HISPANOAMERICA,5.0,CHAMARTIN,OPERATIVO,442972.94,4478389.53,ETRS89,40.45421273,-3.67255434,CALLE,VICTOR DE LA SERNA,19,28016.0,"CALLE VICTOR DE LA SERNA , ASCENDIENTE 1: 054",11024289.0,2007-10-31T00:00:00Z,I5026,AE21,15,INFANTIL,5,"[('INFANTIL', '5')]"
16893,AREA INFANTIL,53,CIUDAD JARDIN,5.0,CHAMARTIN,OPERATIVO,442605.18,4477375.03,ETRS89,40.44504832,-3.67679958,CALLE,SUERO DE QUINONES,18,28002.0,"CALLE SUERO DE QUIÑONES 18 , ASCENDIENTE 1: 0",20103044.0,2004-09-13T00:00:00Z,I5029,AE21,20,INFANTIL,27,"[('INFANTIL', '27')]"
16894,AREA DE MAYORES,53,CIUDAD JARDIN,5.0,CHAMARTIN,OPERATIVO,442657.31,4477919.66,ETRS89,40.4499582,-3.67623407,CALLE,DOCTOR MARCO CORERA,4,28002.0,PARQUE BERLIN JUNTO RTE /LA BARBACOA DE,31052957.0,2004-01-01T00:00:00Z,M0503,AE21,7,MAYORES,13,"[('MAYORES', '13')]"
16895,AREA INFANTIL,51,EL VISO,5.0,CHAMARTIN,OPERATIVO,442405.776,4477168.01,ETRS89,40.44316959,-3.67913202,CALLE,FRANCISCO CAMPOS,12,28002.0,"CALLE FRANCISCO CAMPOS 12 , ASCENDIENTE 1: 05",20009418.0,2007-02-12T00:00:00Z,I5030,AE21,10,INFANTIL,7,"[('INFANTIL', '7')]"
16896,AREA INFANTIL,53,CIUDAD JARDIN,5.0,CHAMARTIN,OPERATIVO,442994.59,4477891.98,ETRS89,40.44973204,-3.67225435,CALLE,CHARCA VERDE,1,28002.0,"CALLE CHARCA VERDE , ASCENDIENTE 1: 053 · CIU",11023167.0,2005-10-20T00:00:00Z,I5031,AE21,16,INFANTIL,4,"[('INFANTIL', '4')]"
16897,AREA INFANTIL,53,CIUDAD JARDIN,5.0,CHAMARTIN,OPERATIVO,443214.76,4477888.78,ETRS89,40.44971829,-3.66965781,CALLE,NAVALAFUENTE,33,28002.0,"CALLE NAVALAFUENTE 33 , ASCENDIENTE 1: 053 ·",11023464.0,2023-08-12T00:00:00Z,I5032,AE21,7,INFANTIL,3,"[('INFANTIL', '3')]"
16898,AREA INFANTIL,52,PROSPERIDAD,5.0,CHAMARTIN,OPERATIVO,443304.849,4477462.687,ETRS89,40.44588598,-3.66855744,CALLE,BAEZA,7,28002.0,"CALLE BAEZA 7-9 , ASCENDIENTE 1: 052 · PROSPE",11022256.0,2006-08-03T00:00:00Z,I5033,AE21,31,INFANTIL,20,"[('INFANTIL', '20')]"
16899,AREA INFANTIL,53,CIUDAD JARDIN,5.0,CHAMARTIN,OPERATIVO,442779.98,4477298.05,ETRS89,40.44436689,-3.67473154,PLAZA,PROSPERIDAD,4,28002.0,"PLAZA PROSPERIDAD , ASCENDIENTE 1: 053 ·",11023887.0,2004-09-13T00:00:00Z,I5034,AE21,13,INFANTIL,3,"[('INFANTIL', '3')]"
16900,AREA INFANTIL,53,CIUDAD JARDIN,5.0,CHAMARTIN,OPERATIVO,443115.0,4477621.38,ETRS89,40.4473026,-3.67081024,CALLE,NIEREMBERG,6,28002.0,"CALLE NIEREMBERG , ASCENDIENTE 1: 053 · CIUDA",11023701.0,2005-12-15T00:00:00Z,I5035,AE21,12,INFANTIL,2,"[('INFANTIL', '2')]"
16901,AREA INFANTIL,52,PROSPERIDAD,5.0,CHAMARTIN,OPERATIVO,443607.61,4477711.45,ETRS89,40.44814755,-3.66500956,CALLE,CORAZON DE MARIA,78,28002.0,"CALLE CORAZÓN DE MARÍA , ASCENDIENTE 1: 052 ·",20009692.0,2005-03-29T00:00:00Z,I5036,AE21,18,INFANTIL,0,[]
16902,AREA INFANTIL,52,PROSPERIDAD,5.0,CHAMARTIN,OPERATIVO,443517.86,4477429.32,ETRS89,40.44559989,-3.66604278,CALLE,CORAZON DE MARIA,62,28002.0,"CALLE CORAZÓN DE MARÍA , ASCENDIENTE 1: 052 ·",11027458.0,2006-04-18T00:00:00Z,I5037,AE21,21,INFANTIL,0,[]
16903,AREA INFANTIL,52,PROSPERIDAD,5.0,CHAMARTIN,OPERATIVO,443653.855,4477379.5,ETRS89,40.44516032,-3.6644348,CALLE,PADRE CLARET,2,28002.0,"JARDINES LUIS DE TRELLES , ASCENDIENTE 1: 0",11022857.0,2006-07-02T00:00:00Z,I5038,AE21,28,INFANTIL,11,"[('INFANTIL', '11')]"
16904,AREA INFANTIL,52,PROSPERIDAD,5.0,CHAMARTIN,OPERATIVO,442685.999,4476753.423,ETRS89,40.43945416,-3.67579054,CALLE,SAN FERNANDO DEL JARAMA,14,28002.0,"CALLE SAN FERNANDO DEL JARAMA , ASCENDIENTE 1",20052668.0,2006-02-20T00:00:00Z,I5039,AE21,36,INFANTIL,9,"[('INFANTIL', '9')]"
16905,AREA DE MAYORES,52,PROSPERIDAD,5.0,CHAMARTIN,OPERATIVO,443642.44,4478140.71,ETRS89,40.4520169,-3.66463694,CALLE,PADRE CLARET,38,28002.0,Parque Félix Rodriguez de la Fuente,31041818.0,2014-02-03T00:00:00Z,M0504,AE21,3,MAYORES,21,[]
16906,AREA INFANTIL,52,PROSPERIDAD,5.0,CHAMARTIN,OPERATIVO,443665.32,4478146.1,ETRS89,40.45206701,-3.66436761,CALLE,PADRE CLARET,38,28002.0,"PARQUE FELIX RODRIGUEZ DE LA FUENTE , ASCEND",31041818.0,2006-03-04T00:00:00Z,I5040,AE21,11,INFANTIL,21,[]
16907,AREA INFANTIL,51,EL VISO,5.0,CHAMARTIN,OPERATIVO,441426.588,4477755.442,ETRS89,40.44839304,-3.69073166,PASEO,CASTELLANA,120,28046.0,"PASEO CASTELLANA 120 , ASCENDIENTE 1: 051 ·",11020875.0,2006-03-29T00:00:00Z,I5041,AE21,23,INFANTIL,9,"[('INFANTIL', '9')]"
16908,AREA INFANTIL,51,EL VISO,5.0,CHAMARTIN,OPERATIVO,441446.19,4477988.77,ETRS89,40.45049634,-3.69052204,PASEO,CASTELLANA,132,28046.0,"PASEO CASTELLANA 132 , ASCENDIENTE 1: 051 ·",11020881.0,2005-05-25T00:00:00Z,I5042,AE21,12,INFANTIL,2,"[('INFANTIL', '2')]"
16909,AREA INFANTIL,54,HISPANOAMERICA,5.0,CHAMARTIN,OPERATIVO,441490.318,4478535.115,ETRS89,40.45542117,-3.69005202,PASEO,CASTELLANA,148,28046.0,"PASEO CASTELLANA , ASCENDIENTE 1: 054 · HISP",11025586.0,2005-06-23T00:00:00Z,I5043,AE21,21,INFANTIL,11,"[('INFANTIL', '11')]"
16910,AREA INFANTIL,55,NUEVA ESPANA,5.0,CHAMARTIN,OPERATIVO,441545.83,4479184.203,ETRS89,40.46127234,-3.68945714,PASEO,CASTELLANA,180,28046.0,"PASEO CASTELLANA 180 , ASCENDIENTE 1: 055 ·",11025643.0,2000-11-04T00:00:00Z,I5044,AE21,26,INFANTIL,8,"[('INFANTIL', '8')]"
16911,AREA INFANTIL,52,PROSPERIDAD,5.0,CHAMARTIN,OPERATIVO,443251.541,4476945.33,ETRS89,40.44122174,-3.6691398,CALLE,CORAZON DE MARIA,32,28002.0,"CALLE CORAZON DE MARIA 32 , ASCENDIENTE 1: 05",11022797.0,2007-01-09T00:00:00Z,I5045,AE21,8,INFANTIL,5,"[('INFANTIL', '5')]"
16912,AREA INFANTIL,52,PROSPERIDAD,5.0,CHAMARTIN,OPERATIVO,443655.2,4478165.84,ETRS89,40.45224415,-3.6644887,CALLE,PADRE CLARET,38,28002.0,"PARQUE FELIX RODRIGUEZ DE LA FUENTE , ASCEND",31041818.0,2005-02-04T00:00:00Z,I5046,AE21,9,INFANTIL,21,[]
16913,AREA INFANTIL,53,CIUDAD JARDIN,5.0,CHAMARTIN,OPERATIVO,442651.92,4477991.09,ETRS89,40.4506013,-3.67630408,CALLE,DOCTOR MARCO CORERA,9,28002.0,"CALLE DOCTOR MARCO CORERA , ASCENDIENTE 1: 05",31042751.0,2006-06-26T00:00:00Z,I5047,AE21,39,INFANTIL,1,[]
16914,AREA INFANTIL,51,EL VISO,5.0,CHAMARTIN,OPERATIVO,441607.1,4477887.863,ETRS89,40.44959865,-3.68861528,PASEO,LA HABANA,13,28036.0,"PASEO HABANA , ASCENDIENTE 1: 051 · EL VISO",11020892.0,2006-09-19T00:00:00Z,I5049,AE21,15,INFANTIL,4,"[('INFANTIL', '4')]"
16915,AREA INFANTIL,56,CASTILLA,5.0,CHAMARTIN,OPERATIVO,441913.37,4481237.08,ETRS89,40.4797913,-3.68531033,PASEO,CASTELLANA,298,28046.0,"PASEO CASTELLANA 298 , ASCENDIENTE 1: 056 ·",11027374.0,2006-07-27T00:00:00Z,I5050,AE21,16,INFANTIL,7,"[('INFANTIL', '7')]"
16916,AREA INFANTIL,53,CIUDAD JARDIN,5.0,CHAMARTIN,OPERATIVO,442638.93,4478041.49,ETRS89,40.45105443,-3.67646182,CALLE,DOCTOR MARCO CORERA,9,28002.0,"PARQUE BERLIN , ASCENDIENTE 1: 053 · CIUDAD",31042751.0,2006-09-19T00:00:00Z,I5051,AE21,2,INFANTIL,1,"[('INFANTIL', '1')]"
16917,AREA INFANTIL,51,EL VISO,5.0,CHAMARTIN,OPERATIVO,441856.69,4477979.26,ETRS89,40.45043949,-3.68568049,CALLE,DARRO,26,28002.0,"CALLE DARRO 26 , ASCENDIENTE 1: 051 · EL VISO",11020983.0,2023-01-10T00:00:00Z,I5052,AE21,17,INFANTIL,3,"[('INFANTIL', '3')]"
16918,AREA INFANTIL,55,NUEVA ESPANA,5.0,CHAMARTIN,OPERATIVO,441809.654,4479348.907,ETRS89,40.46277458,-3.68636069,CALLE,PEDRO MUGURUZA,3,28036.0,"CALLE PEDRO MUGURUZA 3 POST , ASCENDIENTE 1:",11025708.0,2007-06-06T00:00:00Z,I5053,AE21,14,INFANTIL,4,"[('INFANTIL', '4')]"
16919,AREA INFANTIL,54,HISPANOAMERICA,5.0,CHAMARTIN,OPERATIVO,441812.007,4478599.732,ETRS89,40.45602585,-3.68626426,CALLE,PADRE DAMIAN,28,28036.0,"CALLE PADRE DAMIAN 26 , ASCENDIENTE 1: 054 ·",20174327.0,2007-04-19T00:00:00Z,I5055,AE21,20,INFANTIL,8,"[('INFANTIL', '8')]"
16920,AREA INFANTIL,56,CASTILLA,5.0,CHAMARTIN,OPERATIVO,441778.72,4480323.78,ETRS89,40.47155449,-3.68681499,PASEO,CASTELLANA,250,28046.0,"PASEO CASTELLANA 250 , ASCENDIENTE 1: 056 ·",11027302.0,2011-02-15T00:00:00Z,I5056,AE21,8,INFANTIL,1,"[('INFANTIL', '1')]"
16921,AREA INFANTIL,64,ALMENARA,6.0,TETUAN,OPERATIVO,441188.2,4479910.28,ETRS89,40.46778791,-3.69374233,AVENIDA,AVENIDA ASTURIAS,25,28029.0,"AVENIDA ASTURIAS 25 , ASCENDIENTE 1: 064 · A",20011756.0,2016-05-05T00:00:00Z,I6001,AE21,8,INFANTIL,29,"[('INFANTIL', '29')]"
16922,AREA INFANTIL,64,ALMENARA,6.0,TETUAN,OPERATIVO,440908.739,4480150.802,ETRS89,40.4699348,-3.69706101,CALLE,ROSARIO ROMERO,32,28029.0,"AVENIDA ASTURIAS , ASCENDIENTE 1: 064 · ALME",11033247.0,2007-03-14T00:00:00Z,I6002,AE21,8,INFANTIL,5,[]
16923,AREA INFANTIL,64,ALMENARA,6.0,TETUAN,OPERATIVO,441438.32,4480237.49,ETRS89,40.47075322,-3.69082232,CALLE,CALLE MARTIRES DE LA VENTILLA,32,28029.0,"CALLE MARTIRES DE LA VENTILLA 32 , ASCENDIENT",20160643.0,2020-01-16T00:00:00Z,I6003,AE21,10,INFANTIL,1,"[('INFANTIL', '1')]"
16924,AREA INFANTIL,64,ALMENARA,6.0,TETUAN,OPERATIVO,441338.034,4480564.693,ETRS89,40.47369372,-3.69203553,CALLE,VIA LIMITE,29,28029.0,"VIA LÍMITE , ASCENDIENTE 1: 064 · ALMENARA ,",11032294.0,2007-03-14T00:00:00Z,I6005,AE21,15,INFANTIL,1,"[('INFANTIL', '1')]"
16925,AREA INFANTIL,64,ALMENARA,6.0,TETUAN,OPERATIVO,441532.623,4480514.556,ETRS89,40.47325579,-3.68973549,CALLE,MAGNOLIAS,114,28029.0,"CALLE MAGNOLIAS , ASCENDIENTE 1: 064 · ALMENA",31066971.0,2007-03-14T00:00:00Z,I6006,AE21,7,INFANTIL,3,"[('INFANTIL', '3')]"
16926,AREA INFANTIL,64,ALMENARA,6.0,TETUAN,OPERATIVO,441005.23,4480548.28,ETRS89,40.47352229,-3.69595982,VIA,VIA LÍMITE,115,28029.0,"VIA LÍMITE 115 , ASCENDIENTE 1: 064 · ALMENAR",11032471.0,2006-09-19T00:00:00Z,I6007,AE21,15,INFANTIL,0,[]
16927,AREA INFANTIL,64,ALMENARA,6.0,TETUAN,OPERATIVO,441032.37,4480562.8,ETRS89,40.47365502,-3.69564102,CALLE,VIA LIMITE,10,28029.0,"VIA LÍMITE 101 , ASCENDIENTE 1: 064 · ALMENAR",31045422.0,2006-09-19T00:00:00Z,I6008,AE21,27,INFANTIL,2,"[('INFANTIL', '2')]"
16928,AREA INFANTIL,64,ALMENARA,6.0,TETUAN,OPERATIVO,440674.217,4480508.484,ETRS89,40.47314022,-3.69986077,AVENIDA,ASTURIAS,70,28029.0,"AVENIDA ASTURIAS , ASCENDIENTE 1: 064 · ALME",31038106.0,2021-02-11T00:00:00Z,I6009,AE21,12,INFANTIL,5,"[('INFANTIL', '5')]"
16929,AREA DE MAYORES,65,VALDEACEDERAS,6.0,TETUAN,OPERATIVO,440219.117,4480332.257,ETRS89,40.47152007,-3.70521255,CALLE,SINESIO DELGADO,44,28029.0,PARQUE RODRIGUEZ SAHAGUN CON SINESIO D,20047820.0,2007-09-06T00:00:00Z,M0601,AE21,13,MAYORES,16,"[('MAYORES', '16')]"
16930,AREA INFANTIL,64,ALMENARA,6.0,TETUAN,OPERATIVO,441073.51,4480342.2,ETRS89,40.47167069,-3.69513523,CALLE,CALLE PADRE RUBIO  ASCENDIENTE 1,064,28029.0,"CALLE PADRE RUBIO , ASCENDIENTE 1: 064 · ALM",20011838.0,2006-12-12T00:00:00Z,I6010,AE21,9,INFANTIL,0,[]
16931,AREA INFANTIL,65,VALDEACEDERAS,6.0,TETUAN,OPERATIVO,440615.23,4479507.18,ETRS89,40.46411586,-3.70046286,CALLE,CALLE AZUCENAS,38,28039.0,"CALLE AZUCENAS 38 , ASCENDIENTE 1: 065 · VALD",20012494.0,2007-09-01T00:00:00Z,I6011,AE21,10,INFANTIL,27,"[('INFANTIL', '27')]"
16933,AREA INFANTIL,65,VALDEACEDERAS,6.0,TETUAN,OPERATIVO,440161.864,4480222.984,ETRS89,40.47053157,-3.70587759,PASEO,DIRECCION,306,28029.0,"PASEO LA DIRECCIÓN 306 , ASCENDIENTE 1: 065",11034936.0,2007-06-09T00:00:00Z,I6013,AE21,15,INFANTIL,13,[]
16934,AREA INFANTIL,65,VALDEACEDERAS,6.0,TETUAN,OPERATIVO,440146.288,4480325.595,ETRS89,40.47145481,-3.706071,CALLE,SINESIO DELGADO,34,28029.0,"PASEO LA DIRECCIÓN 306 , ASCENDIENTE 1: 065",20047808.0,2006-09-19T00:00:00Z,I6014,AE21,15,INFANTIL,10,"[('INFANTIL', '10')]"
16935,AREA INFANTIL,65,VALDEACEDERAS,6.0,TETUAN,OPERATIVO,440166.209,4480330.178,ETRS89,40.47149753,-3.70583644,PASEO,DIRECCION,306,28029.0,"PASEO LA DIRECCIÓN 306 , ASCENDIENTE 1: 065",11034936.0,2007-09-06T00:00:00Z,I6015,AE21,12,INFANTIL,13,"[('INFANTIL', '10'), ('MAYORES', '3')]"
16936,AREA INFANTIL,62,CUATRO CAMINOS,6.0,TETUAN,OPERATIVO,440802.64,4477889.52,ETRS89,40.44955668,-3.6981016,CALLE,AVIADOR ZORITA,30,28020.0,"CALLE COMANDANTE ZORITA 30 , ASCENDIENTE 1: 0",31009890.0,2007-01-03T00:00:00Z,I6017,AE21,8,INFANTIL,39,"[('INFANTIL', '39')]"
16937,AREA INFANTIL,61,BELLAS VISTAS,6.0,TETUAN,OPERATIVO,439783.41,4478743.66,ETRS89,40.4571779,-3.7102013,CALLE,CALLE FRANCOS RODRIGUEZ,74,28039.0,"CALLE FRANCOS RODRIGUEZ  74 , ASCENDIENTE 1:",11038253.0,2006-10-16T00:00:00Z,I6019,AE21,7,INFANTIL,7,"[('INFANTIL', '7')]"
16938,AREA DE MAYORES,65,VALDEACEDERAS,6.0,TETUAN,OPERATIVO,439650.754,4480034.083,ETRS89,40.46879291,-3.71188846,CALLE,VILLAAMIL,219,28039.0,PARQUE RODRIGUEZ SAHAGUN CON CAMINO DEL,11055243.0,2011-12-15T00:00:00Z,M0602,AE21,9,MAYORES,9,[]
16939,AREA INFANTIL,61,BELLAS VISTAS,6.0,TETUAN,OPERATIVO,439884.756,4478683.522,ETRS89,40.45664349,-3.70900041,CALLE,FRANCOS RODRIGUEZ,68,28039.0,"CALLE FRANCOS RODRIGUEZ  68 , ASCENDIENTE 1:",11038246.0,2013-01-26T00:00:00Z,I6020,AE21,24,INFANTIL,10,"[('INFANTIL', '10')]"
16940,AREA INFANTIL,61,BELLAS VISTAS,6.0,TETUAN,OPERATIVO,440259.629,4478387.581,ETRS89,40.45400457,-3.70455162,CALLE,PAMPLONA,6,28039.0,"CALLE PAMPLONA 6 , ASCENDIENTE 1: 061 · BELLA",31001832.0,2017-01-09T00:00:00Z,I6021,AE21,8,INFANTIL,5,"[('INFANTIL', '5')]"
16941,AREA INFANTIL,62,CUATRO CAMINOS,6.0,TETUAN,OPERATIVO,440934.81,4478535.0,ETRS89,40.45538084,-3.69660311,PLAZA,SAN AMARO,5,28020.0,"PLAZA SAN AMARO 5 , ASCENDIENTE 1: 062 ·",11030131.0,2006-12-18T00:00:00Z,I6022,AE21,12,INFANTIL,6,[]
16942,AREA INFANTIL,62,CUATRO CAMINOS,6.0,TETUAN,OPERATIVO,441181.34,4478569.58,ETRS89,40.45570983,-3.69369899,AVENIDA,AVENIDA BRASIL,13,28020.0,"AVENIDA BRASIL 13 , ASCENDIENTE 1: 062 · CUA",11030057.0,2007-01-26T00:00:00Z,I6023,AE21,13,INFANTIL,10,[]
16943,AREA INFANTIL,62,CUATRO CAMINOS,6.0,TETUAN,OPERATIVO,441210.047,4478567.419,ETRS89,40.4556924,-3.69336024,AVENIDA,BRASIL,18,28020.0,"AVENIDA BRASIL 18 , ASCENDIENTE 1: 062 · CUA",11030053.0,2006-12-12T00:00:00Z,I6024,AE21,14,INFANTIL,4,"[('INFANTIL', '4')]"
16944,AREA INFANTIL,62,CUATRO CAMINOS,6.0,TETUAN,OPERATIVO,441186.47,4478405.79,ETRS89,40.45423471,-3.69362331,AVENIDA,AVENIDA BRASIL  ASCENDIENTE 1,062,28020.0,"AVENIDA BRASIL , ASCENDIENTE 1: 062 · CUATRO",31017523.0,2007-06-04T00:00:00Z,I6025,AE21,17,INFANTIL,5,"[('INFANTIL', '5')]"
16945,AREA INFANTIL,63,CASTILLEJOS,6.0,TETUAN,OPERATIVO,441260.729,4478925.149,ETRS89,40.45891857,-3.69279565,CALLE,SOR ANGELA DE LA CRUZ,7,28020.0,"CALLE SOR ANGELA DE LA CRUZ 7 , ASCENDIENTE 1",11030613.0,2007-05-18T00:00:00Z,I6026,AE21,10,INFANTIL,9,"[('INFANTIL', '9')]"
16946,AREA INFANTIL,63,CASTILLEJOS,6.0,TETUAN,OPERATIVO,441191.047,4478822.69,ETRS89,40.45799064,-3.69360796,AVENIDA,BRASIL,23,28020.0,"AVENIDA BRASIL 23 , ASCENDIENTE 1: 063 · CAS",11030622.0,2007-12-02T00:00:00Z,I6027,AE21,14,INFANTIL,6,"[('INFANTIL', '6')]"
16947,AREA INFANTIL,63,CASTILLEJOS,6.0,TETUAN,OPERATIVO,441175.109,4478678.746,ETRS89,40.45669281,-3.69378258,CALLE,SAN GERMAN,16,28020.0,"CALLE GENERAL YAGÜE , ASCENDIENTE 1: 063 ·",31010063.0,2011-01-15T00:00:00Z,I6028,AE21,13,INFANTIL,3,"[('INFANTIL', '3')]"
16953,AREA INFANTIL,65,VALDEACEDERAS,6.0,TETUAN,OPERATIVO,440628.17,4479966.063,ETRS89,40.46825059,-3.70035318,CALLE,PLATANO,32,28029.0,"CALLE PLÁTANO 32 , ASCENDIENTE 1: 065 · VALDE",11033551.0,2007-04-11T00:00:00Z,I6033,AE21,7,INFANTIL,2,"[('INFANTIL', '2')]"
16954,AREA INFANTIL,65,VALDEACEDERAS,6.0,TETUAN,OPERATIVO,440362.08,4479898.11,ETRS89,40.46761938,-3.70348538,CALLE,CALLE ANTONIO LANZUELA,41,28039.0,"CALLE ANTONIO LANZUELA 41 , ASCENDIENTE 1: 06",31043867.0,2007-03-22T00:00:00Z,I6034,AE21,3,INFANTIL,0,[]
16955,AREA INFANTIL,66,BERRUGUETE,6.0,TETUAN,OPERATIVO,440372.69,4478953.66,ETRS89,40.45911216,-3.70327149,CALLE,MARTINEZ,6,28039.0,"CALLE MARTÍNEZ 6 , ASCENDIENTE 1: 066 · BERRU",20076726.0,2007-02-21T00:00:00Z,I6035,AE21,16,INFANTIL,9,"[('INFANTIL', '9')]"
16956,AREA INFANTIL,63,CASTILLEJOS,6.0,TETUAN,OPERATIVO,440818.26,4478793.82,ETRS89,40.45770411,-3.69800171,PLAZA,PLAZA SAN GERMAN  ASCENDIENTE 1,063,28020.0,"PLAZA SAN GERMAN , ASCENDIENTE 1: 063 · CAS",11030334.0,2007-03-14T00:00:00Z,I6036,AE21,6,INFANTIL,0,[]
16957,AREA INFANTIL,65,VALDEACEDERAS,6.0,TETUAN,OPERATIVO,440409.154,4480318.796,ETRS89,40.47141246,-3.70296965,PASEO,DIRECCION,313,28029.0,"PARQUE LOS PINOS , ASCENDIENTE 1: 065 · VALD",31028429.0,2007-05-22T00:00:00Z,I6037,AE21,8,INFANTIL,6,"[('INFANTIL', '6')]"
16958,AREA INFANTIL,62,CUATRO CAMINOS,6.0,TETUAN,OPERATIVO,440963.76,4478363.16,ETRS89,40.45383489,-3.69624572,CALLE,CALLE GENERAL CABRERA  ASCENDIENTE 1,062,28020.0,"CALLE GENERAL CABRERA , ASCENDIENTE 1: 062 ·",11029993.0,2006-12-28T00:00:00Z,I6038,AE21,8,INFANTIL,0,[]
16959,AREA INFANTIL,65,VALDEACEDERAS,6.0,TETUAN,OPERATIVO,439734.123,4479779.521,ETRS89,40.46650577,-3.71088092,CALLE,VILLAAMIL,229,28039.0,"CALLE VILLAAMIL 229 , ASCENDIENTE 1: 065 · VA",11055248.0,2020-09-13T00:00:00Z,I6039,AE21,11,INFANTIL,5,"[('INFANTIL', '5')]"
16960,AREA DE MAYORES,62,CUATRO CAMINOS,6.0,TETUAN,OPERATIVO,441183.9,4478602.7,ETRS89,40.45600837,-3.69367186,AVENIDA,AVENIDA BRASIL,13,28020.0,"AVENIDA BRASIL Nº13 , ASCENDIENTE 1: 062 ·",11030057.0,2004-01-01T00:00:00Z,M0604,AE21,3,MAYORES,10,"[('MAYORES', '6'), ('INFANTIL', '4')]"
16961,AREA INFANTIL,65,VALDEACEDERAS,6.0,TETUAN,OPERATIVO,439943.111,4479500.658,ETRS89,40.4640088,-3.70838954,CALLE,SANCHEZ PRECIADO,79,28039.0,"PARQUE AGUSTIN RODRIGUEZ SAHAGUN , ASCENDIEN",11055344.0,2007-03-14T00:00:00Z,I6040,AE21,21,INFANTIL,8,"[('INFANTIL', '8')]"
16962,AREA INFANTIL,65,VALDEACEDERAS,6.0,TETUAN,OPERATIVO,439918.687,4479568.3,ETRS89,40.46461638,-3.70868401,CALLE,SAN RESTITUTO,1,28039.0,"PARQUE AGUSTIN RODRIGUEZ SAHAGUN , ASCENDIEN",11055388.0,2007-02-21T00:00:00Z,I6041,AE21,5,INFANTIL,2,"[('INFANTIL', '2')]"
16963,AREA INFANTIL,65,VALDEACEDERAS,6.0,TETUAN,OPERATIVO,439889.626,4480209.196,ETRS89,40.47038771,-3.70908749,CALLE,CAPITAN BLANCO ARGIBAY,210,28029.0,"PARQUE AGUSTIN RODRIGUEZ SAHAGUN , ASCENDIEN",31044365.0,2007-03-08T00:00:00Z,I6043,AE21,11,INFANTIL,6,"[('INFANTIL', '6')]"
16964,AREA INFANTIL,65,VALDEACEDERAS,6.0,TETUAN,OPERATIVO,439710.75,4479927.41,ETRS89,40.46783631,-3.71117065,PARQUE,PARQUE AGUSTIN RODRIGUEZ SAHAGUN  ASCENDIEN,14,28039.0,"PARQUE AGUSTIN RODRIGUEZ SAHAGUN , ASCENDIEN",11035192.0,2007-08-22T00:00:00Z,I6044,AE21,9,INFANTIL,0,[]
16965,AREA INFANTIL,65,VALDEACEDERAS,6.0,TETUAN,OPERATIVO,439808.714,4480259.318,ETRS89,40.47083337,-3.71004665,PARQUE,SINESIO DELGADO,58,28029.0,"PARQUE AGUSTIN RODRIGUEZ SAHAGUN , ASCENDIEN",20047841.0,2007-02-15T00:00:00Z,I6045,AE21,15,INFANTIL,8,"[('INFANTIL', '8')]"
16966,AREA INFANTIL,65,VALDEACEDERAS,6.0,TETUAN,OPERATIVO,439775.62,4480246.642,ETRS89,40.47071678,-3.71043581,CALLE,SINESIO DELGADO,62,28029.0,"PARQUE AGUSTIN RODRIGUEZ SAGUN , ASCENDIENTE",20047847.0,2018-01-30T00:00:00Z,I6046,AE21,14,INFANTIL,6,"[('INFANTIL', '6')]"
16967,AREA INFANTIL,66,BERRUGUETE,6.0,TETUAN,OPERATIVO,440178.9,4479392.74,ETRS89,40.46305364,-3.70559836,CALLE,CALLE LUIS PORTONES,11,28020.0,"CALLE LUIS PORTONES 11 , ASCENDIENTE 1: 066 ·",11037207.0,2007-06-04T00:00:00Z,I6048,AE21,7,INFANTIL,0,[]
16969,AREA DE MAYORES,64,ALMENARA,6.0,TETUAN,OPERATIVO,441334.69,4479825.36,ETRS89,40.46703327,-3.6920066,AVENIDA,ASTURIAS,9,28029.0,AVENIDA ASTURIAS CON ANTONIO GLEZ ECHAR,31043669.0,2004-01-01T00:00:00Z,M0605,AE21,6,MAYORES,10,"[('MAYORES', '10')]"
16970,AREA INFANTIL,65,VALDEACEDERAS,6.0,TETUAN,OPERATIVO,440771.04,4479964.83,ETRS89,40.46824968,-3.69866788,CALLE,CALLE PINOS ALTA,62,28039.0,"CALLE PINOS ALTA 62 , ASCENDIENTE 1: 065 · VA",31024614.0,2007-04-19T00:00:00Z,I6050,AE21,8,INFANTIL,0,[]
16971,AREA INFANTIL,65,VALDEACEDERAS,6.0,TETUAN,OPERATIVO,439629.613,4480059.357,ETRS89,40.46901905,-3.71214023,CALLE,VILLAAMIL,219,28039.0,"PARQUE AGUSTIN RODRIGUEZ SAHAGUN , ASCENDIEN",11055243.0,2007-04-25T00:00:00Z,I6051,AE21,18,INFANTIL,9,"[('MAYORES', '6'), ('INFANTIL', '3')]"
16972,AREA INFANTIL,65,VALDEACEDERAS,6.0,TETUAN,OPERATIVO,440293.46,4479932.11,ETRS89,40.46792074,-3.70429796,CALLE,CALLE PEDRO MEDRANO,18,28039.0,"CALLE PEDRO MEDRANO 18 , ASCENDIENTE 1: 065 ·",11034890.0,2017-10-31T00:00:00Z,I6052,AE21,6,INFANTIL,0,[]
16973,AREA INFANTIL,66,BERRUGUETE,6.0,TETUAN,OPERATIVO,440153.32,4479037.37,ETRS89,40.45985048,-3.70586655,CALLE,CALLE LUIS MISSON,26,28020.0,"CALLE LUIS MISSON 26 , ASCENDIENTE 1: 066 · B",11037318.0,2004-01-01T00:00:00Z,I6053,AE21,14,INFANTIL,3,"[('INFANTIL', '3')]"
16974,AREA INFANTIL,64,ALMENARA,6.0,TETUAN,OPERATIVO,440902.54,4480362.21,ETRS89,40.4718388,-3.69715383,CALLE,CALLE EMILIA,45,28029.0,"CALLE EMILIA 45 , ASCENDIENTE 1: 064 · ALMENA",11032527.0,2004-01-01T00:00:00Z,I6054,AE21,6,INFANTIL,0,[]
16975,AREA INFANTIL,61,BELLAS VISTAS,6.0,TETUAN,OPERATIVO,439756.529,4478065.606,ETRS89,40.45106777,-3.71045398,CALLE,TUDELILLA,7,28039.0,"CALLE TUDELILLA 7 , ASCENDIENTE 1: 061 · BELL",11028193.0,2015-06-04T00:00:00Z,I6055,AE21,5,INFANTIL,1,"[('INFANTIL', '1')]"
16976,AREA INFANTIL,64,ALMENARA,6.0,TETUAN,OPERATIVO,441029.54,4479687.17,ETRS89,40.46576679,-3.69559301,CALLE,CALLE MANUEL MARCHAMALO  ASCENDIENTE 1,065,28029.0,"CALLE MANUEL MARCHAMALO , ASCENDIENTE 1: 065",11031239.0,2015-04-25T00:00:00Z,I6059,AE21,9,INFANTIL,0,[]
16977,AREA DE MAYORES,65,VALDEACEDERAS,6.0,TETUAN,OPERATIVO,440783.0,4479766.85,ETRS89,40.46646705,-3.69850833,CALLE,CALLE VEZA CON PLATANO  ASCENDIENTE 1,065,28039.0,"CALLE VEZA CON PLATANO , ASCENDIENTE 1: 065",11033709.0,2004-01-01T00:00:00Z,M0606,AE21,5,MAYORES,0,[]
16978,AREA INFANTIL,65,VALDEACEDERAS,6.0,TETUAN,OPERATIVO,440778.09,4479772.47,ETRS89,40.46651732,-3.69856677,CALLE,CALLE PLATANO,36,28039.0,"CALLE PLATANO 36 , ASCENDIENTE 1: 065 · VALDE",11033733.0,2011-01-01T00:00:00Z,I6060,AE21,5,INFANTIL,0,[]
16981,AREA INFANTIL,64,ALMENARA,6.0,TETUAN,OPERATIVO,440885.17,4480113.98,ETRS89,40.46960141,-3.69733559,AVENIDA,AVENIDA ASTURIAS REFERENCIA CALLE COSTA VERD,14,28029.0,AVENIDA ASTURIAS REFERENCIA: CALLE/ COSTA VERD,31023946.0,2012-10-23T00:00:00Z,I6063,AE21,6,INFANTIL,0,[]
16983,AREA INFANTIL,76,VALLEHERMOSO,7.0,CHAMBERI,OPERATIVO,440099.5,4477379.65,ETRS89,40.44491318,-3.7063449,AVENIDA,PABLO IGLESIAS,16,28003.0,"AVENIDA PABLO IGLESIAS 16 , ASCENDIENTE 1: 0",31006760.0,2007-07-24T00:00:00Z,I7001,AE21,9,INFANTIL,9,"[('INFANTIL', '9')]"
16984,AREA INFANTIL,75,RIOS ROSAS,7.0,CHAMBERI,OPERATIVO,440796.56,4477524.56,ETRS89,40.44626852,-3.69813928,CALLE,RAIMUNDO FERNANDEZ VILLAVERDE,34,28003.0,"CALLE RAIMUNDO FERNÁNDEZ VILLAVERDE , ASCENDI",11042256.0,2007-09-06T00:00:00Z,I7002,AE21,10,INFANTIL,10,[]
16985,AREA INFANTIL,75,RIOS ROSAS,7.0,CHAMBERI,OPERATIVO,440861.293,4477520.093,ETRS89,40.44623289,-3.69737557,CALLE,RAIMUNDO FERNANDEZ VILLAVERDE,42,28003.0,"CALLE RAIMUNDO FERNÁNDEZ VILLAVERDE , ASCENDI",11042258.0,2007-06-09T00:00:00Z,I7003,AE21,15,INFANTIL,0,[]
16986,AREA INFANTIL,75,RIOS ROSAS,7.0,CHAMBERI,OPERATIVO,440834.66,4477522.36,ETRS89,40.44625142,-3.69768982,CALLE,CALLE RAIMUNDO FERNÁNDEZ VILLAVERDE  ASCENDI,14,28003.0,"CALLE RAIMUNDO FERNÁNDEZ VILLAVERDE , ASCENDI",31035536.0,2007-09-06T00:00:00Z,I7004,AE21,9,INFANTIL,0,[]
16987,AREA INFANTIL,76,VALLEHERMOSO,7.0,CHAMBERI,OPERATIVO,440215.046,4476723.657,ETRS89,40.43901203,-3.70492075,CALLE,CEA BERMUDEZ,3,28003.0,"CALLE CEA BERMUDEZ , ASCENDIENTE 1: 076 · VAL",11039250.0,2007-02-26T00:00:00Z,I7005,AE21,22,INFANTIL,2,"[('INFANTIL', '2')]"
16988,AREA INFANTIL,73,TRAFALGAR,7.0,CHAMBERI,OPERATIVO,440529.2,4476060.389,ETRS89,40.43305954,-3.70115477,PLAZA,OLAVIDE,8,28010.0,"PLAZA OLAVIDE , ASCENDIENTE 1: 073 · TRAFAL",11040549.0,2006-06-21T00:00:00Z,I7008,AE21,26,INFANTIL,16,"[('INFANTIL', '16')]"
16989,AREA INFANTIL,73,TRAFALGAR,7.0,CHAMBERI,OPERATIVO,440544.894,4475999.105,ETRS89,40.43250859,-3.70096402,PLAZA,OLAVIDE,2,28010.0,"PLAZA OLAVIDE , ASCENDIENTE 1: 073 · TRAFAL",20013770.0,2007-04-23T00:00:00Z,I7009,AE21,57,INFANTIL,0,[]
16990,AREA DE MAYORES,73,TRAFALGAR,7.0,CHAMBERI,OPERATIVO,440522.283,4476054.19,ETRS89,40.43300321,-3.70123573,PLAZA,OLAVIDE,3,28010.0,"PLAZA OLAVIDE 3 , ASCENDIENTE 1: 073 · TRAF",20013816.0,2004-01-01T00:00:00Z,M0701,AE21,7,MAYORES,7,"[('MAYORES', '7')]"
16992,AREA INFANTIL,74,ALMAGRO,7.0,CHAMBERI,OPERATIVO,440878.148,4476045.291,ETRS89,40.43294841,-3.69703959,PLAZA,CHAMBERI,5,28010.0,"PLAZA CHAMBERÍ , ASCENDIENTE 1: 074 · ALMAG",11041318.0,2002-01-23T00:00:00Z,I7011,AE21,39,INFANTIL,6,"[('INFANTIL', '6')]"
16993,AREA INFANTIL,72,ARAPILES,7.0,CHAMBERI,OPERATIVO,439992.551,4475791.916,ETRS89,40.43060248,-3.707456,PLAZA,CONDE DEL VALLE DE SUCHIL,3 D,28015.0,"PLAZA CONDE DEL VALLE DE SUCHIL 3 , ASCENDI",11039729.0,2007-01-26T00:00:00Z,I7012,AE21,20,INFANTIL,8,"[('INFANTIL', '8')]"
16994,AREA INFANTIL,72,ARAPILES,7.0,CHAMBERI,OPERATIVO,440014.187,4475790.199,ETRS89,40.43058857,-3.70720078,PLAZA,CONDE DEL VALLE DE SUCHIL,4,28015.0,"PLAZA CONDE DEL VALLE DE SUCHIL , ASCENDIEN",11039773.0,2010-06-14T00:00:00Z,I7013,AE21,19,INFANTIL,3,"[('INFANTIL', '3')]"
16995,AREA INFANTIL,71,GAZTAMBIDE,7.0,CHAMBERI,OPERATIVO,439587.735,4476095.833,ETRS89,40.43331099,-3.71225711,CALLE,MELENDEZ VALDES,32,28015.0,"CALLE BLASCO DE GARAY 38 , ASCENDIENTE 1: 071",20013208.0,2007-11-22T00:00:00Z,I7014,AE21,18,INFANTIL,20,[]
16997,AREA INFANTIL,71,GAZTAMBIDE,7.0,CHAMBERI,OPERATIVO,439359.179,4476569.594,ETRS89,40.4375622,-3.71499678,CALLE,JOAQUIN MARIA LOPEZ,48,28015.0,"CALLE JOAQUIN MARÍA LÓPEZ 48 , ASCENDIENTE 1:",11039135.0,2007-04-06T00:00:00Z,I7016,AE21,20,INFANTIL,5,"[('INFANTIL', '5')]"
16998,AREA INFANTIL,76,VALLEHERMOSO,7.0,CHAMBERI,OPERATIVO,439247.72,4477064.66,ETRS89,40.44201382,-3.7163582,CALLE,DOMENICO SCARLATTI,2,28003.0,"CALLE DOMÉNICO SCARLATTI 5 , ASCENDIENTE 1: 0",11042753.0,2009-12-31T00:00:00Z,I7017,AE21,13,INFANTIL,12,[]
16999,AREA INFANTIL,75,RIOS ROSAS,7.0,CHAMBERI,OPERATIVO,440770.993,4477526.886,ETRS89,40.44628766,-3.69844096,CALLE,RAIMUNDO FERNANDEZ VILLAVERDE,34,28003.0,"CALLE RAIMUNDO FERNANDEZ VILLAVERDE , ASCENDI",11042256.0,2002-11-10T00:00:00Z,I7018,AE21,16,INFANTIL,10,"[('INFANTIL', '10')]"
17000,AREA INFANTIL,76,VALLEHERMOSO,7.0,CHAMBERI,OPERATIVO,440030.125,4476760.732,ETRS89,40.4393327,-3.70710448,PLAZA,TENIENTE DE ALCALDE PEREZ PILLADO,1 B,28003.0,"PLAZA TENIENTE DE ALCALDE PEREZ PILLADO , A",31035628.0,2007-04-06T00:00:00Z,I7019,AE21,8,INFANTIL,5,"[('INFANTIL', '5')]"
17002,AREA INFANTIL,73,TRAFALGAR,7.0,CHAMBERI,OPERATIVO,440314.942,4475926.257,ETRS89,40.43183588,-3.70366807,CALLE,FUENCARRAL,133,28010.0,"CALLE FUENCARRAL 131-147 , ASCENDIENTE 1: 073",11039962.0,2006-12-15T00:00:00Z,I7020,AE21,8,INFANTIL,1,"[('INFANTIL', '1')]"
17004,AREA INFANTIL,72,ARAPILES,7.0,CHAMBERI,OPERATIVO,440014.95,4476083.25,ETRS89,40.43322856,-3.70721945,CALLE,ARAPILES,12,28015.0,CALLE ARAPILES 12,11039612.0,2013-10-20T00:00:00Z,I7022,AE21,6,INFANTIL,1,"[('INFANTIL', '1')]"
17005,AREA DE MAYORES,72,ARAPILES,7.0,CHAMBERI,OPERATIVO,439736.878,4476107.473,ETRS89,40.43342667,-3.71049995,CALLE,GALILEO,35,28015.0,"JARDINES CENTRO CULTURAL GALILEO GALILEI ,",31044128.0,2004-01-01T00:00:00Z,M0703,AE21,3,MAYORES,9,[]
17006,AREA DE MAYORES,75,RIOS ROSAS,7.0,CHAMBERI,OPERATIVO,440694.8,4477532.5,ETRS89,40.4463328,-3.69933991,CALLE,CALLE RAIMUNDO FERNANDEZ VILLAVERDE,30,28003.0,"CALLE RAIMUNDO FERNANDEZ VILLAVERDE Nº30 , AS",31047945.0,2004-01-01T00:00:00Z,M0704,AE21,3,MAYORES,4,"[('MAYORES', '4')]"
17007,AREA DE MAYORES,76,VALLEHERMOSO,7.0,CHAMBERI,OPERATIVO,439268.34,4477063.36,ETRS89,40.44200362,-3.71611495,CALLE,DOMENICO SCARLATTI,2,28003.0,"CALLE DOMENICO SCARLATTI , ASCENDIENTE 1: 076",11042753.0,2015-12-31T00:00:00Z,M0705,AE21,13,MAYORES,12,"[('MAYORES', '7'), ('INFANTIL', '5')]"
17008,AREA INFANTIL,81,EL PARDO,8.0,FUENCARRAL - EL PARDO,OPERATIVO,433924.24,4487320.78,ETRS89,40.53399706,-3.78019371,CALLE,FORTALEZA,57,28048.0,"CALLE FORTALEZA 57 , ASCENDIENTE 1: 081 · EL",11043108.0,2006-01-25T00:00:00Z,I8001,AE21,8,INFANTIL,22,[]
17009,AREA INFANTIL,81,EL PARDO,8.0,FUENCARRAL - EL PARDO,OPERATIVO,433739.531,4487227.307,ETRS89,40.53314029,-3.78236469,CALLE,GARITA,2,28048.0,"CALLE BATALLON , ASCENDIENTE 1: 081 · EL PARD",11043235.0,2005-03-08T00:00:00Z,I8002,AE21,12,INFANTIL,11,[]
17010,AREA INFANTIL,81,EL PARDO,8.0,FUENCARRAL - EL PARDO,OPERATIVO,434331.35,4485327.43,ETRS89,40.51607301,-3.77518024,CALLE,BRUNETE,15,28048.0,"CALLE BRUNETE , ASCENDIENTE 1: 081 · EL PARDO",31017756.0,2004-09-13T00:00:00Z,I8003,AE21,13,INFANTIL,2,"[('INFANTIL', '2')]"
17011,AREA INFANTIL,81,EL PARDO,8.0,FUENCARRAL - EL PARDO,OPERATIVO,434363.07,4485352.21,ETRS89,40.51629874,-3.77480841,CALLE,SAN PANCRACIO,1,28048.0,"CALLE BRUNETE 4 , ASCENDIENTE 1: 081 · EL PAR",20163512.0,2004-09-13T00:00:00Z,I8004,AE21,13,INFANTIL,0,[]
17012,AREA INFANTIL,81,EL PARDO,8.0,FUENCARRAL - EL PARDO,OPERATIVO,434275.35,4485730.32,ETRS89,40.51969787,-3.77588307,AVENIDA,GUARDIA,27,28048.0,"PARQUE MAR OCEANA , ASCENDIENTE 1: 081 · EL",31008003.0,2013-08-31T00:00:00Z,I8006,AE21,4,INFANTIL,3,"[('INFANTIL', '3')]"
17013,AREA INFANTIL,81,EL PARDO,8.0,FUENCARRAL - EL PARDO,OPERATIVO,434476.21,4485321.97,ETRS89,40.51603528,-3.77346984,PLAZA,SAN FERNANDO,4,28048.0,"PLAZA SAN FERNANDO , ASCENDIENTE 1: 081 · E",11043616.0,2018-11-06T00:00:00Z,I8008,AE21,8,INFANTIL,0,[]
17014,AREA INFANTIL,86,VALVERDE,8.0,FUENCARRAL - EL PARDO,OPERATIVO,441533.68,4483503.3,ETRS89,40.50017963,-3.6899987,RONDA,INGENIOSO HIDALGO,189,28034.0,"CALLE ALDONZA LORENZO 187 , ASCENDIENTE 1: 08",20052385.0,2022-08-25T00:00:00Z,I8009,AE21,9,INFANTIL,8,"[('INFANTIL', '8')]"
17015,AREA DE MAYORES,81,EL PARDO,8.0,FUENCARRAL - EL PARDO,OPERATIVO,434406.06,4485564.32,ETRS89,40.51821286,-3.77432296,AVENIDA,GUARDIA,25,28048.0,"PARQUE MAR OCEANA , ASCENDIENTE 1: 081 ·",20014902.0,2004-01-01T00:00:00Z,M0801,AE21,2,MAYORES,2,"[('MAYORES', '2')]"
17016,AREA INFANTIL,86,VALVERDE,8.0,FUENCARRAL - EL PARDO,OPERATIVO,441497.03,4483500.43,ETRS89,40.50015119,-3.69043094,CALLE,ALDONZA LORENZO,19,28034.0,"CALLE ALDONZA LORENZO , ASCENDIENTE 1: 086 ·",20072344.0,2006-01-09T00:00:00Z,I8010,AE21,11,INFANTIL,4,"[('INFANTIL', '4')]"
17017,AREA INFANTIL,86,VALVERDE,8.0,FUENCARRAL - EL PARDO,OPERATIVO,441508.15,4483610.73,ETRS89,40.5011456,-3.6903099,PLAZA,TRES OLIVOS,7,28034.0,"PLAZA LOS TRES OLIVOS , ASCENDIENTE 1: 086",20129147.0,2009-08-20T00:00:00Z,I8011,AE21,5,INFANTIL,5,"[('INFANTIL', '5')]"
17018,AREA INFANTIL,86,VALVERDE,8.0,FUENCARRAL - EL PARDO,OPERATIVO,441505.06,4483662.25,ETRS89,40.50160949,-3.69035112,PLAZA,TRES OLIVOS,3,28034.0,"PLAZA LOS TRES OLIVOS , ASCENDIENTE 1: 086",20136196.0,2007-02-14T00:00:00Z,I8012,AE21,7,INFANTIL,0,[]
17019,AREA INFANTIL,86,VALVERDE,8.0,FUENCARRAL - EL PARDO,OPERATIVO,441693.97,4483676.998,ETRS89,40.50175564,-3.68812314,CALLE,ALONSO QUIJANO,45,28034.0,"PARQUE FUENCARRAL , ASCENDIENTE 1: 086 · VAL",20051689.0,2010-07-15T00:00:00Z,I8014,AE21,10,INFANTIL,6,"[('INFANTIL', '6')]"
17020,AREA INFANTIL,86,VALVERDE,8.0,FUENCARRAL - EL PARDO,OPERATIVO,441300.5,4483725.99,ETRS89,40.50216924,-3.69277106,CALLE,ALONSO QUIJANO,52,28034.0,"CALLE ALONSO QUIJANO , ASCENDIENTE 1: 086 · V",20076777.0,2004-09-13T00:00:00Z,I8015,AE21,6,INFANTIL,4,"[('INFANTIL', '4')]"
17021,AREA INFANTIL,83,PENAGRANDE,8.0,FUENCARRAL - EL PARDO,OPERATIVO,438768.366,4480433.104,ETRS89,40.47232285,-3.72233497,CALLE,JOAQUIN LORENZO,2,28035.0,"CALLE ISLA MALAITA , ASCENDIENTE 1: 083 · PEÑ",31040763.0,2005-04-11T00:00:00Z,I8016,AE21,10,INFANTIL,42,[]
17022,AREA INFANTIL,83,PENAGRANDE,8.0,FUENCARRAL - EL PARDO,OPERATIVO,438764.47,4480422.756,ETRS89,40.47222935,-3.72237993,CALLE,JOAQUIN LORENZO,2,28035.0,"CALLE ISLA MALAITA , ASCENDIENTE 1: 083 · PEÑ",31040763.0,2005-04-11T00:00:00Z,I8017,AE21,11,INFANTIL,42,"[('INFANTIL', '42')]"
17023,AREA INFANTIL,86,VALVERDE,8.0,FUENCARRAL - EL PARDO,OPERATIVO,441088.22,4482804.52,ETRS89,40.49385326,-3.69519052,CALLE,BADALONA,102,28034.0,"CALLE BADALONA , ASCENDIENTE 1: 086 · VALVERD",11048451.0,2004-09-13T00:00:00Z,I8018,AE21,6,INFANTIL,1,"[('INFANTIL', '1')]"
17024,AREA INFANTIL,86,VALVERDE,8.0,FUENCARRAL - EL PARDO,OPERATIVO,441062.19,4482789.52,ETRS89,40.49371629,-3.69549627,CALLE,BADALONA,106,28034.0,"CALLE BADALONA 106 , ASCENDIENTE 1: 086 · VAL",11048449.0,2005-10-03T00:00:00Z,I8019,AE21,6,INFANTIL,2,"[('INFANTIL', '2')]"
17025,AREA DE MAYORES,84,PILAR,8.0,FUENCARRAL - EL PARDO,OPERATIVO,439788.61,4481208.22,ETRS89,40.47937997,-3.71037387,PASEO,VAGUADA,13,28029.0,"PARQUE LA VAGUADA CON AVENIDA BETANZOS , A",20095218.0,2004-01-01T00:00:00Z,M0802,AE21,8,MAYORES,15,"[('MAYORES', '15')]"
17026,AREA INFANTIL,86,VALVERDE,8.0,FUENCARRAL - EL PARDO,OPERATIVO,441141.79,4483240.32,ETRS89,40.49778291,-3.69459889,CALLE,SAN CUGAT DEL VALLES,6,28034.0,"CALLE SAN CUGAT DEL VALLES , ASCENDIENTE 1: 0",20046463.0,2006-04-20T00:00:00Z,I8020,AE21,12,INFANTIL,4,"[('INFANTIL', '4')]"
17027,AREA INFANTIL,86,VALVERDE,8.0,FUENCARRAL - EL PARDO,OPERATIVO,440976.68,4482669.01,ETRS89,40.49262461,-3.69649404,CALLE,SABADELL,178,28034.0,"CALLE SABADELL 178 , ASCENDIENTE 1: 086 · VAL",11048184.0,2006-01-09T00:00:00Z,I8021,AE21,7,INFANTIL,4,"[('INFANTIL', '4')]"
17028,AREA INFANTIL,86,VALVERDE,8.0,FUENCARRAL - EL PARDO,OPERATIVO,440935.124,4482480.147,ETRS89,40.49092031,-3.69696677,CALLE,MANRESA,90,28034.0,"CALLE MANRESA 90 , ASCENDIENTE 1: 086 · VALVE",11048275.0,2005-11-24T00:00:00Z,I8024,AE21,9,INFANTIL,6,"[('INFANTIL', '6')]"
17029,AREA INFANTIL,83,PENAGRANDE,8.0,FUENCARRAL - EL PARDO,OPERATIVO,438488.99,4481864.38,ETRS89,40.48519562,-3.72576929,CALLE,VALLE DE PINARES LLANOS,76,28035.0,"CALLE PINARES LLANOS CON PEÑA DEL ÁGUILA (ZONA II), ASCENDIENTE 1: 083",20085703.0,2009-10-27T00:00:00Z,I8025,AE21,12,INFANTIL,4,"[('INFANTIL', '4')]"
17030,AREA INFANTIL,86,VALVERDE,8.0,FUENCARRAL - EL PARDO,OPERATIVO,441357.39,4482946.79,ETRS89,40.49515394,-3.69202756,CALLE,DIVINA PASTORA,12,28034.0,"PARQUE FUENTE CHICA , ASCENDIENTE 1: 086 · V",11048745.0,2006-08-05T00:00:00Z,I8027,AE21,10,INFANTIL,3,"[('INFANTIL', '3')]"
17031,AREA INFANTIL,87,MIRASIERRA,8.0,FUENCARRAL - EL PARDO,OPERATIVO,438893.11,4482118.89,ETRS89,40.48751817,-3.72102597,PLAZA,VALLE DE LA JAROSA,113,28035.0,"PLAZA VALLE DE LA JAROSA 113 CON PEÑA DEL CUERVO , ASCENDIENTE 1",20088984.0,2001-03-14T00:00:00Z,I8029,AE21,7,INFANTIL,16,"[('INFANTIL', '16')]"
17032,AREA DE MAYORES,86,VALVERDE,8.0,FUENCARRAL - EL PARDO,OPERATIVO,441720.74,4482635.09,ETRS89,40.49237163,-3.68771137,CALLE,ISLAS JARVI,2,28034.0,"CALLE ISLAS JARVI 2 , ASCENDIENTE 1: 086 · VA",11048680.0,2004-01-01T00:00:00Z,M0803,AE21,5,MAYORES,12,"[('MAYORES', '12')]"
17033,AREA INFANTIL,87,MIRASIERRA,8.0,FUENCARRAL - EL PARDO,OPERATIVO,438744.11,4482251.46,ETRS89,40.48870142,-3.72279676,CALLE,VALLE DE ENMEDIO,91,28035.0,"CALLE VALLE DE ENMEDIO  , ASCENDIENTE 1: 087",20133321.0,2006-06-16T00:00:00Z,I8030,AE21,11,INFANTIL,0,[]
17034,AREA INFANTIL,87,MIRASIERRA,8.0,FUENCARRAL - EL PARDO,OPERATIVO,438952.051,4482252.377,ETRS89,40.488725,-3.72034341,CALLE,VALLE DE ENMEDIO,29,28035.0,"CALLE VALLE DE ENMEDIO , ASCENDIENTE 1: 087 ·",20092873.0,2006-07-28T00:00:00Z,I8031,AE21,6,INFANTIL,3,"[('INFANTIL', '3')]"
17035,AREA INFANTIL,87,MIRASIERRA,8.0,FUENCARRAL - EL PARDO,OPERATIVO,439242.4,4482090.44,ETRS89,40.48728752,-3.71690213,AVENIDA,VENTISQUERO DE LA CONDESA,13,28035.0,"AVENIDA VENTISQUERO DE LA CONDESA 13 CON CERRO MINGUETE, ASCEN",20085775.0,2007-02-15T00:00:00Z,I8032,AE21,7,INFANTIL,2,"[('INFANTIL', '2')]"
17036,AREA INFANTIL,87,MIRASIERRA,8.0,FUENCARRAL - EL PARDO,OPERATIVO,439243.535,4482146.479,ETRS89,40.48779242,-3.71689411,AVENIDA,VENTISQUERO DE LA CONDESA,15,28035.0,"AVENIDA VENTISQUERO DE LA CONDESA CON VALLE DE ENMEDIO, ASCEN",20085742.0,2007-04-12T00:00:00Z,I8033,AE21,6,INFANTIL,3,"[('INFANTIL', '3')]"
17037,AREA INFANTIL,87,MIRASIERRA,8.0,FUENCARRAL - EL PARDO,OPERATIVO,438503.5,4482125.55,ETRS89,40.4875494,-3.72562344,CALLE,PENA DEL AGUILA,24,28035.0,"CALLE PEÑA DEL AGUILA CON PLAZA DE LA JAROSA, ASCENDIENTE 1: 087",20092979.0,2006-04-20T00:00:00Z,I8034,AE21,7,INFANTIL,4,"[('INFANTIL', '4')]"
17038,AREA INFANTIL,87,MIRASIERRA,8.0,FUENCARRAL - EL PARDO,OPERATIVO,439969.56,4482772.5,ETRS89,40.49348466,-3.70838732,CALLE,NURIA,42,28034.0,"CALLE NURIA CON PAN DE AZÚCAR (CENTRO COMERCIAL), ASCENDIENTE 1: 087 · MIRASIE",11050427.0,2005-05-19T00:00:00Z,I8035,AE21,12,INFANTIL,2,"[('INFANTIL', '2')]"
17039,AREA INFANTIL,83,PENAGRANDE,8.0,FUENCARRAL - EL PARDO,OPERATIVO,438831.87,4481815.22,ETRS89,40.4847781,-3.72171921,PLAZA,PENA HORCAJO,8,28035.0,"CALLE RISCOS DE POLANCO  CON PEÑA HORCAJO, ASCENDIENTE 1: 083",20073920.0,2015-10-15T00:00:00Z,I8036,AE21,6,INFANTIL,2,"[('INFANTIL', '2')]"
17040,AREA INFANTIL,83,PENAGRANDE,8.0,FUENCARRAL - EL PARDO,OPERATIVO,438930.03,4481554.93,ETRS89,40.48244055,-3.72053604,PLAZA,PICO SALVAGUARDIA,3,28035.0,"PLAZA PICO DE LA SALVAGUARDIA , ASCENDIENTE",31045117.0,2004-09-13T00:00:00Z,I8037,AE21,6,INFANTIL,2,"[('INFANTIL', '2')]"
17041,AREA INFANTIL,83,PENAGRANDE,8.0,FUENCARRAL - EL PARDO,OPERATIVO,438756.69,4481516.11,ETRS89,40.48207808,-3.72257729,CALLE,RAMON GOMEZ DE LA SERNA,12,28035.0,"CALLE RAMON GOMEZ DE LA SERNA FRENTE A CALLE JULIO CALVO Nº12-14, ASCENDIENTE 1",20097801.0,2013-06-16T00:00:00Z,I8039,AE21,12,INFANTIL,1,"[('INFANTIL', '1')]"
17042,AREA DE MAYORES,84,PILAR,8.0,FUENCARRAL - EL PARDO,OPERATIVO,439954.95,4480907.45,ETRS89,40.47668257,-3.70838306,CALLE,MELCHOR FERNANDEZ ALMAGRO,66,28029.0,"PLAZA FONSAGRADA CON PLAZA REDONDELA , ASCE",11046728.0,2018-10-21T00:00:00Z,M0804,AE21,5,MAYORES,5,"[('MAYORES', '5')]"
17043,AREA INFANTIL,83,PENAGRANDE,8.0,FUENCARRAL - EL PARDO,OPERATIVO,438658.96,4481644.98,ETRS89,40.48323177,-3.72374274,CALLE,RAMON GOMEZ DE LA SERNA,21,28035.0,"CALLE RAMON GOMEZ DE LA SERNA 21 , ASCENDIENT",11045387.0,2006-07-13T00:00:00Z,I8040,AE21,6,INFANTIL,4,"[('INFANTIL', '4')]"
17044,AREA INFANTIL,86,VALVERDE,8.0,FUENCARRAL - EL PARDO,OPERATIVO,441623.63,4482807.54,ETRS89,40.4939183,-3.68887311,CALLE,ISLAS BRITANICAS,3,28034.0,"CALLE ISLAS BRITANICAS 3 , ASCENDIENTE 1: 086",11048623.0,2005-10-04T00:00:00Z,I8042,AE21,16,INFANTIL,0,[]
17045,AREA INFANTIL,86,VALVERDE,8.0,FUENCARRAL - EL PARDO,OPERATIVO,442014.576,4482471.869,ETRS89,40.49092185,-3.68422933,CALLE,ISLA DE JAVA,45,28034.0,"CALLE ISLA DE JAVA 45 , ASCENDIENTE 1: 086 ·",11047552.0,2006-09-01T00:00:00Z,I8043,AE21,10,INFANTIL,2,"[('INFANTIL', '2')]"
17046,AREA INFANTIL,83,PENAGRANDE,8.0,FUENCARRAL - EL PARDO,OPERATIVO,438541.27,4481840.78,ETRS89,40.4849869,-3.7251502,CALLE,RAMON GOMEZ DE LA SERNA,22,28035.0,"CALLE PINARES LLANOS CON PEÑA DEL ÁGUILA (ZONA I), ASCENDIENTE 1: 083",20097816.0,2005-10-03T00:00:00Z,I8046,AE21,21,INFANTIL,2,"[('INFANTIL', '2')]"
17047,AREA INFANTIL,86,VALVERDE,8.0,FUENCARRAL - EL PARDO,OPERATIVO,441297.42,4482667.57,ETRS89,40.49263439,-3.69270933,CALLE,BADALONA,31,28034.0,"CALLE BADALONA 25 , ASCENDIENTE 1: 086 · VALV",11048026.0,2005-12-09T00:00:00Z,I8047,AE21,7,INFANTIL,2,"[('INFANTIL', '2')]"
17048,AREA INFANTIL,85,LA PAZ,8.0,FUENCARRAL - EL PARDO,OPERATIVO,440461.27,4481805.46,ETRS89,40.48480863,-3.70249448,CALLE,SANGENJO,17,28034.0,"CALLE SANGENJO 17 , ASCENDIENTE 1: 085 · LA P",11045848.0,2005-03-10T00:00:00Z,I8049,AE21,10,INFANTIL,16,"[('INFANTIL', '16')]"
17049,AREA INFANTIL,85,LA PAZ,8.0,FUENCARRAL - EL PARDO,OPERATIVO,440011.78,4481861.26,ETRS89,40.48527894,-3.70780289,CALLE,VALENCIA DE DON JUAN,1,28034.0,"CALLE GINZO DE LIMIA 55 , ASCENDIENTE 1: 085",11045780.0,2007-10-31T00:00:00Z,I8051,AE21,20,INFANTIL,6,"[('INFANTIL', '6')]"
17050,AREA INFANTIL,85,LA PAZ,8.0,FUENCARRAL - EL PARDO,OPERATIVO,440559.691,4481653.56,ETRS89,40.48344731,-3.70131906,CALLE,SANTIAGO DE COMPOSTELA,34,28034.0,"CALLE SANTIAGO DE COMPOSTELA , ASCENDIENTE 1:",11045907.0,2019-07-11T00:00:00Z,I8054,AE21,7,INFANTIL,3,"[('INFANTIL', '3')]"
17051,AREA INFANTIL,85,LA PAZ,8.0,FUENCARRAL - EL PARDO,OPERATIVO,440462.061,4481562.015,ETRS89,40.48261564,-3.70246229,CALLE,PEDRO RICO,45,28029.0,"CALLE PEDRO RICO , ASCENDIENTE 1: 085 · LA PA",11046931.0,2005-12-14T00:00:00Z,I8056,AE21,8,INFANTIL,4,"[('INFANTIL', '4')]"
17052,AREA INFANTIL,85,LA PAZ,8.0,FUENCARRAL - EL PARDO,OPERATIVO,440406.729,4481475.723,ETRS89,40.48183432,-3.70310697,CALLE,FINISTERRE,50,28029.0,"CALLE PEDRO RICO , ASCENDIENTE 1: 085 · LA PA",20098043.0,2012-03-05T00:00:00Z,I8057,AE21,7,INFANTIL,4,"[('INFANTIL', '4')]"
17053,AREA INFANTIL,85,LA PAZ,8.0,FUENCARRAL - EL PARDO,OPERATIVO,440769.63,4481659.71,ETRS89,40.48351772,-3.6988428,CALLE,PEDRO RICO,12,28029.0,"CALLE PEDRO RICO , ASCENDIENTE 1: 085 · LA PA",20182184.0,2006-02-20T00:00:00Z,I8058,AE21,10,INFANTIL,2,"[('INFANTIL', '2')]"
17054,AREA INFANTIL,85,LA PAZ,8.0,FUENCARRAL - EL PARDO,OPERATIVO,440741.6,4481808.41,ETRS89,40.48485526,-3.6991874,CALLE,SANTIAGO DE COMPOSTELA,12,28034.0,"CALLE SANTIAGO DE COMPOSTELA 22 , ASCENDIENTE",11045893.0,2004-12-14T00:00:00Z,I8059,AE21,7,INFANTIL,4,"[('INFANTIL', '4')]"
17055,AREA INFANTIL,85,LA PAZ,8.0,FUENCARRAL - EL PARDO,OPERATIVO,441143.675,4481347.573,ETRS89,40.48073246,-3.69440088,CALLE,ARZOBISPO MORCILLO,9,28029.0,"PARQUE NORTE , ASCENDIENTE 1: 085 · LA PAZ ,",20098064.0,2005-11-05T00:00:00Z,I8060,AE21,19,INFANTIL,8,"[('INFANTIL', '8')]"
17056,AREA INFANTIL,85,LA PAZ,8.0,FUENCARRAL - EL PARDO,OPERATIVO,440667.1,4481424.04,ETRS89,40.48138739,-3.70003038,CALLE,ANTONIO LOPEZ AGUADO,3,28029.0,"PARQUE NORTE(ZONA2) , ASCENDIENTE 1: 085 · L",11046923.0,2006-07-28T00:00:00Z,I8061,AE21,8,INFANTIL,15,[]
17057,AREA INFANTIL,85,LA PAZ,8.0,FUENCARRAL - EL PARDO,OPERATIVO,440571.85,4481486.2,ETRS89,40.48194054,-3.70115992,CALLE,ANTONIO LOPEZ AGUADO,12,28029.0,"PARQUE NORTE(ZONA3) 49 , ASCENDIENTE 1: 085",11046935.0,2001-09-13T00:00:00Z,I8062,AE21,9,INFANTIL,4,"[('INFANTIL', '4')]"
17058,AREA INFANTIL,85,LA PAZ,8.0,FUENCARRAL - EL PARDO,OPERATIVO,440699.669,4481504.623,ETRS89,40.48211564,-3.69965369,CALLE,ANTONIO LOPEZ AGUADO,3,28029.0,"PARQUE NORTE , ASCENDIENTE 1: 085 · LA PAZ ,",11046923.0,2006-01-25T00:00:00Z,I8063,AE21,15,INFANTIL,15,"[('INFANTIL', '15')]"
17059,AREA INFANTIL,85,LA PAZ,8.0,FUENCARRAL - EL PARDO,OPERATIVO,441234.142,4481255.332,ETRS89,40.47990793,-3.69332505,AVENIDA,MONFORTE DE LEMOS,8,28029.0,"PARQUE NORTE , ASCENDIENTE 1: 085 · LA PAZ ,",20095286.0,2004-09-13T00:00:00Z,I8067,AE21,12,INFANTIL,33,[]
17060,AREA INFANTIL,85,LA PAZ,8.0,FUENCARRAL - EL PARDO,OPERATIVO,440946.13,4481426.42,ETRS89,40.48142872,-3.69673874,CALLE,ARZOBISPO MORCILLO,30,28029.0,"CALLE ARZOBISPO MORCILLO 30 , ASCENDIENTE 1:",11046968.0,2004-12-14T00:00:00Z,I8069,AE21,8,INFANTIL,2,"[('INFANTIL', '2')]"
17061,AREA INFANTIL,84,PILAR,8.0,FUENCARRAL - EL PARDO,OPERATIVO,439896.97,4481616.6,ETRS89,40.48306665,-3.70913425,CALLE,FERMIN CABALLERO,62,28034.0,"CALLE FERMIN CABALLERO Nº 60-62-64, ASCENDIENTE 1: 084 ·",20148651.0,2006-05-08T00:00:00Z,I8070,AE21,7,INFANTIL,16,"[('INFANTIL', '16')]"
17062,AREA INFANTIL,84,PILAR,8.0,FUENCARRAL - EL PARDO,OPERATIVO,439618.14,4481574.46,ETRS89,40.48266681,-3.71241981,CALLE,FERMIN CABALLERO,70,28034.0,"PLAZA ESQUIVIAS FERMIN CABALLERO Nº70 POSTERIOR, ASCENDIENTE 1: 084 · BARR",11045739.0,2005-09-30T00:00:00Z,I8072,AE21,11,INFANTIL,6,"[('INFANTIL', '6')]"
17063,AREA INFANTIL,83,PENAGRANDE,8.0,FUENCARRAL - EL PARDO,OPERATIVO,439350.25,4481476.58,ETRS89,40.48176555,-3.71557093,PLAZA,LA CAROLINA,7,28034.0,"PLAZA DE LA CAROLINA 7, ASCENDIENTE 1: 083 ·",11045667.0,2005-05-11T00:00:00Z,I8073,AE21,7,INFANTIL,3,"[('INFANTIL', '3')]"
17064,AREA INFANTIL,84,PILAR,8.0,FUENCARRAL - EL PARDO,OPERATIVO,440283.18,4480885.7,ETRS89,40.4765103,-3.70450898,CALLE,MELCHOR FERNANDEZ ALMAGRO,48,28029.0,"CALLE MELCHOR FERNANDEZ ALMAGRO   48 , ASCEND",11046764.0,2018-07-24T00:00:00Z,I8076,AE21,8,INFANTIL,3,"[('INFANTIL', '3')]"
17065,AREA INFANTIL,84,PILAR,8.0,FUENCARRAL - EL PARDO,OPERATIVO,440346.451,4480532.849,ETRS89,40.47333623,-3.70372941,AVENIDA,EL FERROL,7,28029.0,"AVENIDA DEL FERROL 07 POSTERIOR, ASCENDIENTE 1: 084 ·",20016008.0,2005-05-11T00:00:00Z,I8078,AE21,9,INFANTIL,5,"[('INFANTIL', '5')]"
17066,AREA INFANTIL,84,PILAR,8.0,FUENCARRAL - EL PARDO,OPERATIVO,440230.74,4480536.85,ETRS89,40.47336396,-3.70509473,AVENIDA,EL FERROL,21,28029.0,"AVENIDA DEL FERROL 21 POSTERIOR, ASCENDIENTE 1: 084 ·",11046304.0,2004-09-13T00:00:00Z,I8079,AE21,14,INFANTIL,2,"[('INFANTIL', '2')]"
17067,AREA INFANTIL,83,PENAGRANDE,8.0,FUENCARRAL - EL PARDO,OPERATIVO,439135.8,4481407.36,ETRS89,40.4811263,-3.71809427,CALLE,ISLAS CIES,4,28035.0,"CALLE ISLAS CIES CON ISLA DE TAVIRA (III), ASCENDIENTE 1: 083 · PEÑAG",31010614.0,2007-11-04T00:00:00Z,I8080,AE21,8,INFANTIL,1,"[('INFANTIL', '1')]"
17068,AREA INFANTIL,83,PENAGRANDE,8.0,FUENCARRAL - EL PARDO,OPERATIVO,438289.99,4481701.95,ETRS89,40.48371763,-3.7281013,CALLE,RAMON GOMEZ DE LA SERNA,75,28035.0,"CALLE RAMON GOMEZ DE LA SERNA 75 , ASCENDIENT",11051209.0,2006-11-12T00:00:00Z,I8081,AE21,21,INFANTIL,9,"[('INFANTIL', '9')]"
17069,AREA INFANTIL,84,PILAR,8.0,FUENCARRAL - EL PARDO,OPERATIVO,440300.46,4480757.37,ETRS89,40.4753555,-3.70429306,AVENIDA,EL FERROL,12,28029.0,"AVENIDA DEL FERROL 12 POSTERIOR, ASCENDIENTE 1: 084 ·",11046293.0,2007-04-11T00:00:00Z,I8082,AE21,15,INFANTIL,6,"[('INFANTIL', '6')]"
17070,AREA INFANTIL,86,VALVERDE,8.0,FUENCARRAL - EL PARDO,OPERATIVO,441826.28,4481650.04,ETRS89,40.48350531,-3.68637565,CALLE,SAN MODESTO,6,28034.0,"CALLE SAN MODESTO 6 , JUNTO AL METRO (ZONA I)",11047029.0,2013-09-26T00:00:00Z,I8083,AE21,8,INFANTIL,4,"[('INFANTIL', '4')]"
17071,AREA INFANTIL,86,VALVERDE,8.0,FUENCARRAL - EL PARDO,OPERATIVO,441854.87,4481823.95,ETRS89,40.48507396,-3.6860543,CALLE,MARCOS DE ORUETA,7,28034.0,"CALLE MARCOS DE ORUETA 7 , ASCENDIENTE 1: 086",20149134.0,2004-09-13T00:00:00Z,I8086,AE21,6,INFANTIL,11,[]
17072,AREA INFANTIL,86,VALVERDE,8.0,FUENCARRAL - EL PARDO,OPERATIVO,441688.32,4481825.39,ETRS89,40.48507526,-3.68801942,CALLE,SAN DACIO,20,28034.0,"CALLE SAN DACIO 20 , ASCENDIENTE 1: 086 · VAL",11047129.0,2005-09-30T00:00:00Z,I8087,AE21,7,INFANTIL,4,"[('INFANTIL', '4')]"
17073,AREA INFANTIL,83,PENAGRANDE,8.0,FUENCARRAL - EL PARDO,OPERATIVO,439156.65,4481448.16,ETRS89,40.48149537,-3.71785221,CALLE,ISLA DE TAVIRA,6,28035.0,"CALLE ISLAS CIES CON ISLA DE TAVIRA (II), ASCENDIENTE 1: 083 · PEÑAG",20015634.0,2006-02-20T00:00:00Z,I8088,AE21,6,INFANTIL,2,"[('INFANTIL', '2')]"
17074,AREA INFANTIL,85,LA PAZ,8.0,FUENCARRAL - EL PARDO,OPERATIVO,440807.134,4481203.139,ETRS89,40.47940742,-3.69835771,AVENIDA,MONFORTE DE LEMOS,19,28029.0,"CALLE MONFORTE DE LEMOS , ASCENDIENTE 1: 085",20095242.0,2007-04-11T00:00:00Z,I8089,AE21,12,INFANTIL,9,"[('INFANTIL', '9')]"
17075,AREA INFANTIL,85,LA PAZ,8.0,FUENCARRAL - EL PARDO,OPERATIVO,440895.076,4481074.139,ETRS89,40.47825161,-3.69730822,CALLE,VILLA DE MARIN,51,28029.0,"CALLE VILLA DEL MARIN 51 , ASCENDIENTE 1: 085",20098088.0,2007-02-14T00:00:00Z,I8090,AE21,13,INFANTIL,7,"[('INFANTIL', '7')]"
17076,AREA INFANTIL,84,PILAR,8.0,FUENCARRAL - EL PARDO,OPERATIVO,440048.15,4481035.96,ETRS89,40.47784697,-3.70729575,PLAZA,ARTEIJO,16,28029.0,"PLAZA ARTEIJO , ASCENDIENTE 1: 084 · BARRIO",20016022.0,2006-01-09T00:00:00Z,I8091,AE21,5,INFANTIL,0,[]
17077,AREA INFANTIL,84,PILAR,8.0,FUENCARRAL - EL PARDO,OPERATIVO,440171.62,4481074.17,ETRS89,40.47820008,-3.7058428,PLAZA,MONDARIZ,14,28029.0,"PLAZA PLAZA DE ARTEIJO Y MONDARIZ , ASCENDIEN",31050644.0,2005-11-05T00:00:00Z,I8092,AE21,7,INFANTIL,4,"[('INFANTIL', '4')]"
17078,AREA INFANTIL,85,LA PAZ,8.0,FUENCARRAL - EL PARDO,OPERATIVO,440459.62,4481035.39,ETRS89,40.47787143,-3.70244164,CALLE,FINISTERRE,19,28029.0,"CALLE FINISTERRE AL LADO DEL Nº 19, ASCENDIENTE 1: 085 · LA PA",31045119.0,2002-01-29T00:00:00Z,I8093,AE21,23,INFANTIL,0,[]
17079,AREA INFANTIL,83,PENAGRANDE,8.0,FUENCARRAL - EL PARDO,OPERATIVO,437905.95,4481376.85,ETRS89,40.4807604,-3.73260031,CALLE,DOCTOR REINOSA,15,28035.0,"CALLE DOCTOR REINOSA , ASCENDIENTE 1: 083 · P",31020689.0,2005-05-11T00:00:00Z,I8095,AE21,7,INFANTIL,3,"[('INFANTIL', '3')]"
